[{
  "title": "Budapest I. kerület",
  "latitude": 47.5011,
  "longitude": 19.0469
}, {
  "title": "Budapest II. kerület",
  "latitude": 47.496,
  "longitude": 19.0771
}, {
  "title": "Budapest III. kerület",
  "latitude": 47.5562,
  "longitude": 19.0684
}, {
  "title": "Budapest IV. kerület",
  "latitude": 47.5,
  "longitude": 19.0833
}, {
  "title": "Budapest V. kerület",
  "latitude": 47.4986,
  "longitude": 19.0499
}, {
  "title": "Budapest VI. kerület",
  "latitude": 47.4996,
  "longitude": 19.0574
}, {
  "title": "Budapest VII. kerület",
  "latitude": 47.5,
  "longitude": 19.0833
}, {
  "title": "Budapest VIII. kerület",
  "latitude": 47.4946,
  "longitude": 19.0776
}, {
  "title": "Budapest IX. kerület",
  "latitude": 47.5,
  "longitude": 19.0833
}, {
  "title": "Budapest X. kerület",
  "latitude": 47.5032,
  "longitude": 19.1367
}, {
  "title": "Budapest XI. kerület",
  "latitude": 47.482,
  "longitude": 19.0536
}, {
  "title": "Budapest XII. kerület",
  "latitude": 47.4942,
  "longitude": 19.024
}, {
  "title": "Budapest XIII. kerület",
  "latitude": 47.5,
  "longitude": 19.0833
}, {
  "title": "Budapest XIV. kerület",
  "latitude": 47.5141,
  "longitude": 19.1038
}, {
  "title": "Budapest XV. kerület",
  "latitude": 47.5,
  "longitude": 19.0833
}, {
  "title": "Budapest XVI. kerület",
  "latitude": 47.5,
  "longitude": 19.0833
}, {
  "title": "Budapest XVII. kerület",
  "latitude": 47.5,
  "longitude": 19.0833
}, {
  "title": "Budapest XVIII. kerület",
  "latitude": 47.5,
  "longitude": 19.0833
}, {
  "title": "Budapest XIX. kerület",
  "latitude": 47.5,
  "longitude": 19.0833
}, {
  "title": "Budapest XX. kerület",
  "latitude": 47.5,
  "longitude": 19.0833
}, {
  "title": "Budapest XXI. kerület",
  "latitude": 47.5,
  "longitude": 19.0833
}, {
  "title": "Budapest XXII. kerület",
  "latitude": 47.5,
  "longitude": 19.0833
}, {
  "title": "Budapest XXIII. kerület",
  "latitude": 47.5,
  "longitude": 19.0833
}, {
  "title": "Szentendre",
  "latitude": 47.6667,
  "longitude": 19.0833
}, {
  "title": "Pilisszentlászló",
  "latitude": 47.7167,
  "longitude": 19
}, {
  "title": "Budakalász",
  "latitude": 47.6167,
  "longitude": 19.05
}, {
  "title": "Csobánka",
  "latitude": 47.6333,
  "longitude": 18.9667
}, {
  "title": "Szigetmonostor",
  "latitude": 47.6833,
  "longitude": 19.1167
}, {
  "title": "Leányfalu",
  "latitude": 47.7167,
  "longitude": 19.0833
}, {
  "title": "Pócsmegyer",
  "latitude": 47.7167,
  "longitude": 19.1
}, {
  "title": "Pomáz",
  "latitude": 47.65,
  "longitude": 19.0333
}, {
  "title": "Tahitótfalu",
  "latitude": 47.75,
  "longitude": 19.1
}, {
  "title": "Dunabogdány",
  "latitude": 47.7833,
  "longitude": 19.0333
}, {
  "title": "Kisoroszi",
  "latitude": 47.8,
  "longitude": 19.0167
}, {
  "title": "Visegrád",
  "latitude": 47.7833,
  "longitude": 18.9833
}, {
  "title": "Dömös",
  "latitude": 47.7667,
  "longitude": 18.9167
}, {
  "title": "Pilismarót",
  "latitude": 47.7833,
  "longitude": 18.8833
}, {
  "title": "Érd",
  "latitude": 47.3667,
  "longitude": 18.9333
}, {
  "title": "Sóskút",
  "latitude": 47.4,
  "longitude": 18.8333
}, {
  "title": "Pusztazámor",
  "latitude": 47.4,
  "longitude": 18.7833
}, {
  "title": "Budaörs",
  "latitude": 47.4531,
  "longitude": 18.9602
}, {
  "title": "Budaörs",
  "latitude": 47.45,
  "longitude": 18.9667
}, {
  "title": "Törökbálint",
  "latitude": 47.4333,
  "longitude": 18.9167
}, {
  "title": "Diósd",
  "latitude": 47.4,
  "longitude": 18.95
}, {
  "title": "Biatorbágy",
  "latitude": 47.4667,
  "longitude": 18.8167
}, {
  "title": "Herceghalom",
  "latitude": 47.5,
  "longitude": 18.75
}, {
  "title": "Bicske",
  "latitude": 47.4833,
  "longitude": 18.6333
}, {
  "title": "Csabdi",
  "latitude": 47.5167,
  "longitude": 18.6167
}, {
  "title": "Mány",
  "latitude": 47.5333,
  "longitude": 18.6667
}, {
  "title": "Újbarok",
  "latitude": 47.4833,
  "longitude": 18.5667
}, {
  "title": "Szár",
  "latitude": 47.4833,
  "longitude": 18.5167
}, {
  "title": "Szárliget",
  "latitude": 47.4952,
  "longitude": 18.6095
}, {
  "title": "Páty",
  "latitude": 47.5167,
  "longitude": 18.8333
}, {
  "title": "Zsámbék",
  "latitude": 47.55,
  "longitude": 18.7167
}, {
  "title": "Tök",
  "latitude": 47.5667,
  "longitude": 18.7333
}, {
  "title": "Perbál",
  "latitude": 47.6,
  "longitude": 18.7667
}, {
  "title": "Pilisjászfalu",
  "latitude": 47.6042,
  "longitude": 18.8521
}, {
  "title": "Piliscsaba",
  "latitude": 47.6167,
  "longitude": 18.8333
}, {
  "title": "Solymár",
  "latitude": 47.5833,
  "longitude": 18.9333
}, {
  "title": "Pilisszentiván",
  "latitude": 47.6167,
  "longitude": 18.9
}, {
  "title": "Pilisvörösvár",
  "latitude": 47.6167,
  "longitude": 18.9167
}, {
  "title": "Tinnye",
  "latitude": 47.6167,
  "longitude": 18.7833
}, {
  "title": "Telki",
  "latitude": 47.55,
  "longitude": 18.8333
}, {
  "title": "Remeteszőlős",
  "latitude": 47.6,
  "longitude": 18.8981
}, {
  "title": "Etyek",
  "latitude": 47.45,
  "longitude": 18.75
}, {
  "title": "Budakeszi",
  "latitude": 47.5167,
  "longitude": 18.9333
}, {
  "title": "Budajenő",
  "latitude": 47.55,
  "longitude": 18.8
}, {
  "title": "Nagykovácsi",
  "latitude": 47.5833,
  "longitude": 18.8833
}, {
  "title": "Pilisszántó",
  "latitude": 47.6667,
  "longitude": 18.9
}, {
  "title": "Üröm",
  "latitude": 47.6,
  "longitude": 19.0167
}, {
  "title": "Pilisborosjenő",
  "latitude": 47.6167,
  "longitude": 19
}, {
  "title": "Pilisszentkereszt",
  "latitude": 47.7,
  "longitude": 18.9
}, {
  "title": "Dobogókő",
  "latitude": 47.7167,
  "longitude": 18.9
}, {
  "title": "Gödöllő",
  "latitude": 47.6,
  "longitude": 19.3667
}, {
  "title": "Szada",
  "latitude": 47.6333,
  "longitude": 19.3167
}, {
  "title": "Veresegyház",
  "latitude": 47.65,
  "longitude": 19.2833
}, {
  "title": "Erdőkertes",
  "latitude": 47.6667,
  "longitude": 19.3167
}, {
  "title": "Valkó",
  "latitude": 47.5667,
  "longitude": 19.5167
}, {
  "title": "Vácszentlászló",
  "latitude": 47.5833,
  "longitude": 19.5333
}, {
  "title": "Zsámbok",
  "latitude": 47.55,
  "longitude": 19.6167
}, {
  "title": "Isaszeg",
  "latitude": 47.5333,
  "longitude": 19.4
}, {
  "title": "Dány",
  "latitude": 47.5167,
  "longitude": 19.55
}, {
  "title": "Pécel",
  "latitude": 47.4833,
  "longitude": 19.35
}, {
  "title": "Dunakeszi",
  "latitude": 47.6333,
  "longitude": 19.1333
}, {
  "title": "Göd",
  "latitude": 47.7,
  "longitude": 19.1333
}, {
  "title": "Göd",
  "latitude": 47.6976,
  "longitude": 19.1539
}, {
  "title": "Sződliget",
  "latitude": 47.7333,
  "longitude": 19.15
}, {
  "title": "Sződ",
  "latitude": 47.7167,
  "longitude": 19.2
}, {
  "title": "Csörög",
  "latitude": 47.7333,
  "longitude": 19.1833
}, {
  "title": "Csömör",
  "latitude": 47.55,
  "longitude": 19.2333
}, {
  "title": "Nagytarcsa",
  "latitude": 47.5333,
  "longitude": 19.2833
}, {
  "title": "Kistarcsa",
  "latitude": 47.5333,
  "longitude": 19.2667
}, {
  "title": "Kerepes",
  "latitude": 47.5333,
  "longitude": 19.2667
}, {
  "title": "Mogyoród",
  "latitude": 47.6,
  "longitude": 19.25
}, {
  "title": "Fót",
  "latitude": 47.6167,
  "longitude": 19.2
}, {
  "title": "Csomád",
  "latitude": 47.6667,
  "longitude": 19.2333
}, {
  "title": "Őrbottyán",
  "latitude": 47.6833,
  "longitude": 19.2667
}, {
  "title": "Vácrátót",
  "latitude": 47.7167,
  "longitude": 19.2333
}, {
  "title": "Váchartyán",
  "latitude": 47.7333,
  "longitude": 19.2667
}, {
  "title": "Kisnémedi",
  "latitude": 47.7333,
  "longitude": 19.3
}, {
  "title": "Püspökszilágy",
  "latitude": 47.7333,
  "longitude": 19.3167
}, {
  "title": "Vácduka",
  "latitude": 47.75,
  "longitude": 19.2167
}, {
  "title": "Aszód",
  "latitude": 47.65,
  "longitude": 19.5
}, {
  "title": "Kartal",
  "latitude": 47.6667,
  "longitude": 19.55
}, {
  "title": "Verseg",
  "latitude": 47.7167,
  "longitude": 19.55
}, {
  "title": "Kálló",
  "latitude": 47.75,
  "longitude": 19.5
}, {
  "title": "Erdőkürt",
  "latitude": 47.7667,
  "longitude": 19.4667
}, {
  "title": "Erdőtarcsa",
  "latitude": 47.7667,
  "longitude": 19.55
}, {
  "title": "Iklad",
  "latitude": 47.6667,
  "longitude": 19.45
}, {
  "title": "Domony",
  "latitude": 47.65,
  "longitude": 19.4333
}, {
  "title": "Galgamácsa",
  "latitude": 47.7,
  "longitude": 19.3833
}, {
  "title": "Vácegres",
  "latitude": 47.6833,
  "longitude": 19.3667
}, {
  "title": "Váckisújfalu",
  "latitude": 47.7,
  "longitude": 19.35
}, {
  "title": "Bag",
  "latitude": 47.6333,
  "longitude": 19.4833
}, {
  "title": "Hévízgyörk",
  "latitude": 47.6333,
  "longitude": 19.5167
}, {
  "title": "Galgahévíz",
  "latitude": 47.6167,
  "longitude": 19.5667
}, {
  "title": "Tura",
  "latitude": 47.6167,
  "longitude": 19.6
}, {
  "title": "Monor",
  "latitude": 47.35,
  "longitude": 19.45
}, {
  "title": "Péteri",
  "latitude": 47.3833,
  "longitude": 19.4167
}, {
  "title": "Vasad",
  "latitude": 47.3167,
  "longitude": 19.4
}, {
  "title": "Csévharaszt",
  "latitude": 47.3,
  "longitude": 19.4333
}, {
  "title": "Pánd",
  "latitude": 47.35,
  "longitude": 19.6333
}, {
  "title": "Káva",
  "latitude": 47.35,
  "longitude": 19.5833
}, {
  "title": "Bénye",
  "latitude": 47.35,
  "longitude": 19.55
}, {
  "title": "Gomba",
  "latitude": 47.3667,
  "longitude": 19.5333
}, {
  "title": "Vecsés",
  "latitude": 47.4018,
  "longitude": 19.2458
}, {
  "title": "Vecsés",
  "latitude": 47.4,
  "longitude": 19.2833
}, {
  "title": "Üllő",
  "latitude": 47.3833,
  "longitude": 19.35
}, {
  "title": "Gyömrő",
  "latitude": 47.4167,
  "longitude": 19.4
}, {
  "title": "Ecser",
  "latitude": 47.45,
  "longitude": 19.3333
}, {
  "title": "Maglód",
  "latitude": 47.45,
  "longitude": 19.3667
}, {
  "title": "Mende",
  "latitude": 47.4167,
  "longitude": 19.45
}, {
  "title": "Sülysáp",
  "latitude": 47.45,
  "longitude": 19.5583
}, {
  "title": "Kóka",
  "latitude": 47.4833,
  "longitude": 19.5833
}, {
  "title": "Úri",
  "latitude": 47.4167,
  "longitude": 19.5333
}, {
  "title": "Tápiószecső",
  "latitude": 47.45,
  "longitude": 19.6
}, {
  "title": "Tóalmás",
  "latitude": 47.5167,
  "longitude": 19.6667
}, {
  "title": "Tápióság",
  "latitude": 47.4,
  "longitude": 19.6167
}, {
  "title": "Szentmártonkáta",
  "latitude": 47.45,
  "longitude": 19.7
}, {
  "title": "Szentlőrinckáta",
  "latitude": 47.5167,
  "longitude": 19.75
}, {
  "title": "Ráckeve",
  "latitude": 47.1667,
  "longitude": 18.95
}, {
  "title": "Lórév",
  "latitude": 47.1167,
  "longitude": 18.9
}, {
  "title": "Szigetszentmiklós",
  "latitude": 47.35,
  "longitude": 19.05
}, {
  "title": "Halásztelek",
  "latitude": 47.3667,
  "longitude": 18.9833
}, {
  "title": "Szigethalom",
  "latitude": 47.3333,
  "longitude": 19
}, {
  "title": "Tököl",
  "latitude": 47.3104,
  "longitude": 19.0021
}, {
  "title": "Szigetcsép",
  "latitude": 47.2667,
  "longitude": 18.9833
}, {
  "title": "Szigetszentmárton",
  "latitude": 47.2333,
  "longitude": 18.9667
}, {
  "title": "Szigetújfalu",
  "latitude": 47.2333,
  "longitude": 18.9333
}, {
  "title": "Szigetbecse",
  "latitude": 47.1333,
  "longitude": 18.95
}, {
  "title": "Makád",
  "latitude": 47.0833,
  "longitude": 18.9333
}, {
  "title": "Dunaharaszti",
  "latitude": 47.35,
  "longitude": 19.0833
}, {
  "title": "Taksony",
  "latitude": 47.3333,
  "longitude": 19.0833
}, {
  "title": "Dunavarsány",
  "latitude": 47.2833,
  "longitude": 19.0667
}, {
  "title": "Délegyháza",
  "latitude": 47.25,
  "longitude": 19.0667
}, {
  "title": "Áporka",
  "latitude": 47.2333,
  "longitude": 19.0167
}, {
  "title": "Majosháza",
  "latitude": 47.2667,
  "longitude": 19
}, {
  "title": "Kiskunlacháza",
  "latitude": 47.2,
  "longitude": 19.0167
}, {
  "title": "Dömsöd",
  "latitude": 47.0833,
  "longitude": 19
}, {
  "title": "Apaj",
  "latitude": 47.1167,
  "longitude": 19.1
}, {
  "title": "Bugyi",
  "latitude": 47.2167,
  "longitude": 19.15
}, {
  "title": "Alsónémedi",
  "latitude": 47.3167,
  "longitude": 19.1667
}, {
  "title": "Gyál",
  "latitude": 47.3833,
  "longitude": 19.2333
}, {
  "title": "Felsőpakony",
  "latitude": 47.35,
  "longitude": 19.25
}, {
  "title": "Ócsa",
  "latitude": 47.3,
  "longitude": 19.2333
}, {
  "title": "Inárcs",
  "latitude": 47.2667,
  "longitude": 19.3333
}, {
  "title": "Kakucs",
  "latitude": 47.25,
  "longitude": 19.3667
}, {
  "title": "Újhartyán",
  "latitude": 47.2167,
  "longitude": 19.3833
}, {
  "title": "Dabas",
  "latitude": 47.1833,
  "longitude": 19.3167
}, {
  "title": "Tatárszentgyörgy",
  "latitude": 47.0667,
  "longitude": 19.3833
}, {
  "title": "Hernád",
  "latitude": 47.1667,
  "longitude": 19.4333
}, {
  "title": "Örkény",
  "latitude": 47.1333,
  "longitude": 19.4333
}, {
  "title": "Pusztavacs",
  "latitude": 47.1667,
  "longitude": 19.5
}, {
  "title": "Táborfalva",
  "latitude": 47.0833,
  "longitude": 19.4667
}, {
  "title": "Dunaújváros",
  "latitude": 46.9833,
  "longitude": 18.9333
}, {
  "title": "Nagyvenyim",
  "latitude": 46.9667,
  "longitude": 18.85
}, {
  "title": "Mezőfalva",
  "latitude": 46.9333,
  "longitude": 18.7667
}, {
  "title": "Daruszentmiklós",
  "latitude": 46.8952,
  "longitude": 18.8452
}, {
  "title": "Előszállás",
  "latitude": 46.8333,
  "longitude": 18.8167
}, {
  "title": "Nagykarácsony",
  "latitude": 46.8667,
  "longitude": 18.7833
}, {
  "title": "Baracs",
  "latitude": 46.8833,
  "longitude": 18.8833
}, {
  "title": "Kisapostag",
  "latitude": 46.9,
  "longitude": 18.9333
}, {
  "title": "Perkáta",
  "latitude": 47.05,
  "longitude": 18.8
}, {
  "title": "Szabadegyháza",
  "latitude": 47.0667,
  "longitude": 18.6833
}, {
  "title": "Sárosd",
  "latitude": 47.05,
  "longitude": 18.65
}, {
  "title": "Hantos",
  "latitude": 47,
  "longitude": 18.7
}, {
  "title": "Nagylók",
  "latitude": 46.9667,
  "longitude": 18.6667
}, {
  "title": "Százhalombatta",
  "latitude": 47.3333,
  "longitude": 18.9333
}, {
  "title": "Ercsi",
  "latitude": 47.25,
  "longitude": 18.9
}, {
  "title": "Iváncsa",
  "latitude": 47.15,
  "longitude": 18.8167
}, {
  "title": "Beloiannisz",
  "latitude": 47.1667,
  "longitude": 18.8333
}, {
  "title": "Besnyő",
  "latitude": 47.1833,
  "longitude": 18.8167
}, {
  "title": "Adony",
  "latitude": 47.1167,
  "longitude": 18.8667
}, {
  "title": "Kulcs",
  "latitude": 47.05,
  "longitude": 18.9167
}, {
  "title": "Rácalmás",
  "latitude": 47.0167,
  "longitude": 18.95
}, {
  "title": "Tárnok",
  "latitude": 47.3667,
  "longitude": 18.85
}, {
  "title": "Martonvásár",
  "latitude": 47.3167,
  "longitude": 18.7833
}, {
  "title": "Tordas",
  "latitude": 47.35,
  "longitude": 18.75
}, {
  "title": "Gyúró",
  "latitude": 47.3833,
  "longitude": 18.7333
}, {
  "title": "Ráckeresztúr",
  "latitude": 47.2667,
  "longitude": 18.8333
}, {
  "title": "Baracska",
  "latitude": 47.2833,
  "longitude": 18.7667
}, {
  "title": "Kajászó",
  "latitude": 47.3167,
  "longitude": 18.7333
}, {
  "title": "Vál",
  "latitude": 47.3667,
  "longitude": 18.6833
}, {
  "title": "Kápolnásnyék",
  "latitude": 47.2333,
  "longitude": 18.6833
}, {
  "title": "Pázmánd",
  "latitude": 47.2833,
  "longitude": 18.6667
}, {
  "title": "Vereb",
  "latitude": 47.3167,
  "longitude": 18.6167
}, {
  "title": "Velence",
  "latitude": 47.2333,
  "longitude": 18.65
}, {
  "title": "Gárdony",
  "latitude": 47.2,
  "longitude": 18.65
}, {
  "title": "Pusztaszabolcs",
  "latitude": 47.1333,
  "longitude": 18.7667
}, {
  "title": "Esztergom",
  "latitude": 47.8,
  "longitude": 18.75
}, {
  "title": "Dorog",
  "latitude": 47.7167,
  "longitude": 18.7333
}, {
  "title": "Kesztölc",
  "latitude": 47.7167,
  "longitude": 18.8
}, {
  "title": "Leányvár",
  "latitude": 47.6833,
  "longitude": 18.7833
}, {
  "title": "Piliscsév",
  "latitude": 47.6833,
  "longitude": 18.8167
}, {
  "title": "Csolnok",
  "latitude": 47.7,
  "longitude": 18.7167
}, {
  "title": "Dág",
  "latitude": 47.6667,
  "longitude": 18.7167
}, {
  "title": "Sárisáp",
  "latitude": 47.6833,
  "longitude": 18.6833
}, {
  "title": "Nagysáp",
  "latitude": 47.6833,
  "longitude": 18.6
}, {
  "title": "Bajna",
  "latitude": 47.65,
  "longitude": 18.6
}, {
  "title": "Epöl",
  "latitude": 47.65,
  "longitude": 18.65
}, {
  "title": "Máriahalom",
  "latitude": 47.6333,
  "longitude": 18.7167
}, {
  "title": "Úny",
  "latitude": 47.6333,
  "longitude": 18.7333
}, {
  "title": "Annavölgy",
  "latitude": 47.6625,
  "longitude": 18.6771
}, {
  "title": "Tokod",
  "latitude": 47.7167,
  "longitude": 18.6667
}, {
  "title": "Tokodaltáró",
  "latitude": 47.7444,
  "longitude": 18.5972
}, {
  "title": "Bajót",
  "latitude": 47.7333,
  "longitude": 18.5667
}, {
  "title": "Tát",
  "latitude": 47.75,
  "longitude": 18.65
}, {
  "title": "Mogyorósbánya",
  "latitude": 47.7333,
  "longitude": 18.6
}, {
  "title": "Nyergesújfalu",
  "latitude": 47.7667,
  "longitude": 18.55
}, {
  "title": "Lábatlan",
  "latitude": 47.75,
  "longitude": 18.5
}, {
  "title": "Süttő",
  "latitude": 47.75,
  "longitude": 18.45
}, {
  "title": "Neszmély",
  "latitude": 47.7333,
  "longitude": 18.3667
}, {
  "title": "Dunaalmás",
  "latitude": 47.7333,
  "longitude": 18.3333
}, {
  "title": "Vác",
  "latitude": 47.7833,
  "longitude": 19.1333
}, {
  "title": "Nőtincs",
  "latitude": 47.8833,
  "longitude": 19.15
}, {
  "title": "Felsőpetény",
  "latitude": 47.8833,
  "longitude": 19.2
}, {
  "title": "Kosd",
  "latitude": 47.8,
  "longitude": 19.1833
}, {
  "title": "Rád",
  "latitude": 47.8,
  "longitude": 19.2333
}, {
  "title": "Penc",
  "latitude": 47.8,
  "longitude": 19.25
}, {
  "title": "Csővár",
  "latitude": 47.8167,
  "longitude": 19.3333
}, {
  "title": "Ősagárd",
  "latitude": 47.8667,
  "longitude": 19.2
}, {
  "title": "Keszeg",
  "latitude": 47.8333,
  "longitude": 19.25
}, {
  "title": "Alsópetény",
  "latitude": 47.8833,
  "longitude": 19.25
}, {
  "title": "Nézsa",
  "latitude": 47.85,
  "longitude": 19.3
}, {
  "title": "Legénd",
  "latitude": 47.8833,
  "longitude": 19.3167
}, {
  "title": "Verőce",
  "latitude": 47.8333,
  "longitude": 19.0333
}, {
  "title": "Kismaros",
  "latitude": 47.8333,
  "longitude": 19.0333
}, {
  "title": "Szokolya",
  "latitude": 47.8667,
  "longitude": 19.0167
}, {
  "title": "Kóspallag",
  "latitude": 47.8833,
  "longitude": 18.9333
}, {
  "title": "Nagymaros",
  "latitude": 47.7833,
  "longitude": 18.9667
}, {
  "title": "Zebegény",
  "latitude": 47.8,
  "longitude": 18.9167
}, {
  "title": "Szob",
  "latitude": 47.8167,
  "longitude": 18.8667
}, {
  "title": "Márianosztra",
  "latitude": 47.8667,
  "longitude": 18.8833
}, {
  "title": "Ipolydamásd",
  "latitude": 47.85,
  "longitude": 18.8333
}, {
  "title": "Letkés",
  "latitude": 47.8833,
  "longitude": 18.7833
}, {
  "title": "Ipolytölgyes",
  "latitude": 47.9167,
  "longitude": 18.7833
}, {
  "title": "Nagybörzsöny",
  "latitude": 47.9333,
  "longitude": 18.8333
}, {
  "title": "Vámosmikola",
  "latitude": 47.9833,
  "longitude": 18.7833
}, {
  "title": "Tésa",
  "latitude": 48.0333,
  "longitude": 18.85
}, {
  "title": "Perőcsény",
  "latitude": 48,
  "longitude": 18.8667
}, {
  "title": "Kemence",
  "latitude": 48.0167,
  "longitude": 18.9
}, {
  "title": "Bernecebaráti",
  "latitude": 48.0333,
  "longitude": 18.9167
}, {
  "title": "Szendehely",
  "latitude": 47.85,
  "longitude": 19.1167
}, {
  "title": "Berkenye",
  "latitude": 47.8833,
  "longitude": 19.0833
}, {
  "title": "Nógrád",
  "latitude": 47.9167,
  "longitude": 19.05
}, {
  "title": "Diósjenő",
  "latitude": 47.95,
  "longitude": 19.05
}, {
  "title": "Borsosberény",
  "latitude": 47.9667,
  "longitude": 19.1167
}, {
  "title": "Nagyoroszi",
  "latitude": 48,
  "longitude": 19.1
}, {
  "title": "Drégelypalánk",
  "latitude": 48.05,
  "longitude": 19.05
}, {
  "title": "Hont",
  "latitude": 48.05,
  "longitude": 19
}, {
  "title": "Patak",
  "latitude": 48.0333,
  "longitude": 19.15
}, {
  "title": "Dejtár",
  "latitude": 48.0333,
  "longitude": 19.1667
}, {
  "title": "Rétság",
  "latitude": 47.9333,
  "longitude": 19.1333
}, {
  "title": "Tereske",
  "latitude": 47.95,
  "longitude": 19.2
}, {
  "title": "Bánk",
  "latitude": 47.9333,
  "longitude": 19.1833
}, {
  "title": "Romhány",
  "latitude": 47.9333,
  "longitude": 19.2667
}, {
  "title": "Kétbodony",
  "latitude": 47.9333,
  "longitude": 19.2667
}, {
  "title": "Kisecset",
  "latitude": 47.9333,
  "longitude": 19.3167
}, {
  "title": "Szente",
  "latitude": 47.9667,
  "longitude": 19.2833
}, {
  "title": "Szátok",
  "latitude": 47.95,
  "longitude": 19.2333
}, {
  "title": "Tolmács",
  "latitude": 47.9333,
  "longitude": 19.1333
}, {
  "title": "Horpács",
  "latitude": 48,
  "longitude": 19.1333
}, {
  "title": "Pusztaberki",
  "latitude": 47.9667,
  "longitude": 19.1667
}, {
  "title": "Érsekvadkert",
  "latitude": 48,
  "longitude": 19.2
}, {
  "title": "Balassagyarmat",
  "latitude": 48.0833,
  "longitude": 19.3
}, {
  "title": "Patvarc",
  "latitude": 48.0667,
  "longitude": 19.35
}, {
  "title": "Ipolyvece",
  "latitude": 48.0667,
  "longitude": 19.1167
}, {
  "title": "Őrhalom",
  "latitude": 48.0833,
  "longitude": 19.4167
}, {
  "title": "Hugyag",
  "latitude": 48.0833,
  "longitude": 19.4333
}, {
  "title": "Csitár",
  "latitude": 48.05,
  "longitude": 19.4333
}, {
  "title": "Iliny",
  "latitude": 48.0333,
  "longitude": 19.4333
}, {
  "title": "Nógrádmarcal",
  "latitude": 48.0333,
  "longitude": 19.4
}, {
  "title": "Cserhátsurány",
  "latitude": 47.9833,
  "longitude": 19.4333
}, {
  "title": "Herencsény",
  "latitude": 47.9833,
  "longitude": 19.4833
}, {
  "title": "Csesztve",
  "latitude": 48.0167,
  "longitude": 19.2833
}, {
  "title": "Galgagyörk",
  "latitude": 47.7333,
  "longitude": 19.3833
}, {
  "title": "Püspökhatvan",
  "latitude": 47.7667,
  "longitude": 19.3667
}, {
  "title": "Acsa",
  "latitude": 47.8,
  "longitude": 19.3833
}, {
  "title": "Nógrádsáp",
  "latitude": 47.8333,
  "longitude": 19.35
}, {
  "title": "Galgaguta",
  "latitude": 47.85,
  "longitude": 19.4
}, {
  "title": "Bercel",
  "latitude": 47.8667,
  "longitude": 19.4167
}, {
  "title": "Vanyarc",
  "latitude": 47.8333,
  "longitude": 19.45
}, {
  "title": "Nógrádkövesd",
  "latitude": 47.8667,
  "longitude": 19.3833
}, {
  "title": "Szécsénke",
  "latitude": 47.9,
  "longitude": 19.3333
}, {
  "title": "Becske",
  "latitude": 47.9167,
  "longitude": 19.3833
}, {
  "title": "Magyarnándor",
  "latitude": 47.9667,
  "longitude": 19.35
}, {
  "title": "Debercsény",
  "latitude": 47.9667,
  "longitude": 19.3167
}, {
  "title": "Cserháthaláp",
  "latitude": 47.9833,
  "longitude": 19.3667
}, {
  "title": "Terény",
  "latitude": 47.95,
  "longitude": 19.45
}, {
  "title": "Szanda",
  "latitude": 47.9333,
  "longitude": 19.45
}, {
  "title": "Mohora",
  "latitude": 47.9833,
  "longitude": 19.3333
}, {
  "title": "Szügy",
  "latitude": 48.0333,
  "longitude": 19.3333
}, {
  "title": "Cegléd",
  "latitude": 47.1667,
  "longitude": 19.8
}, {
  "title": "Tápiószentmárton",
  "latitude": 47.3333,
  "longitude": 19.75
}, {
  "title": "Nyársapát",
  "latitude": 47.1,
  "longitude": 19.8
}, {
  "title": "Csemő",
  "latitude": 47.1167,
  "longitude": 19.7
}, {
  "title": "Pilis",
  "latitude": 47.2833,
  "longitude": 19.55
}, {
  "title": "Nyáregyháza",
  "latitude": 47.25,
  "longitude": 19.5
}, {
  "title": "Újlengyel",
  "latitude": 47.2167,
  "longitude": 19.45
}, {
  "title": "Albertirsa",
  "latitude": 47.25,
  "longitude": 19.6167
}, {
  "title": "Dánszentmiklós",
  "latitude": 47.2167,
  "longitude": 19.55
}, {
  "title": "Mikebuda",
  "latitude": 47.1667,
  "longitude": 19.6333
}, {
  "title": "Ceglédbercel",
  "latitude": 47.2167,
  "longitude": 19.6833
}, {
  "title": "Abony",
  "latitude": 47.1833,
  "longitude": 20
}, {
  "title": "Kőröstetétlen",
  "latitude": 47.1,
  "longitude": 20.0333
}, {
  "title": "Jászkarajenő",
  "latitude": 47.05,
  "longitude": 20.0667
}, {
  "title": "Törtel",
  "latitude": 47.1167,
  "longitude": 19.9333
}, {
  "title": "Nagykőrös",
  "latitude": 47.0333,
  "longitude": 19.7833
}, {
  "title": "Kocsér",
  "latitude": 47.0053,
  "longitude": 19.9114
}, {
  "title": "Nagykáta",
  "latitude": 47.4167,
  "longitude": 19.75
}, {
  "title": "Tápióbicske",
  "latitude": 47.3667,
  "longitude": 19.6833
}, {
  "title": "Farmos",
  "latitude": 47.3667,
  "longitude": 19.85
}, {
  "title": "Tápiószele",
  "latitude": 47.3333,
  "longitude": 19.8833
}, {
  "title": "Tápiógyörgye",
  "latitude": 47.3333,
  "longitude": 19.95
}, {
  "title": "Újszilvás",
  "latitude": 47.2833,
  "longitude": 19.9333
}, {
  "title": "Tápiószőlős",
  "latitude": 47.3,
  "longitude": 19.85
}, {
  "title": "Tatabánya",
  "latitude": 47.5667,
  "longitude": 18.4167
}, {
  "title": "Gyermely",
  "latitude": 47.6,
  "longitude": 18.65
}, {
  "title": "Szomor",
  "latitude": 47.5833,
  "longitude": 18.6667
}, {
  "title": "Vértessomló",
  "latitude": 47.5167,
  "longitude": 18.3667
}, {
  "title": "Várgesztes",
  "latitude": 47.4667,
  "longitude": 18.4
}, {
  "title": "Tarján",
  "latitude": 47.6167,
  "longitude": 18.5167
}, {
  "title": "Héreg",
  "latitude": 47.65,
  "longitude": 18.5167
}, {
  "title": "Vértestolna",
  "latitude": 47.6333,
  "longitude": 18.45
}, {
  "title": "Tardos",
  "latitude": 47.6667,
  "longitude": 18.45
}, {
  "title": "Baj",
  "latitude": 47.65,
  "longitude": 18.3667
}, {
  "title": "Vértesszőlős",
  "latitude": 47.6167,
  "longitude": 18.3833
}, {
  "title": "Oroszlány",
  "latitude": 47.4833,
  "longitude": 18.3167
}, {
  "title": "Környe",
  "latitude": 47.55,
  "longitude": 18.3333
}, {
  "title": "Kecskéd",
  "latitude": 47.5167,
  "longitude": 18.3167
}, {
  "title": "Kömlőd",
  "latitude": 47.55,
  "longitude": 18.2667
}, {
  "title": "Dad",
  "latitude": 47.5167,
  "longitude": 18.2333
}, {
  "title": "Bokod",
  "latitude": 47.5,
  "longitude": 18.25
}, {
  "title": "Szákszend",
  "latitude": 47.55,
  "longitude": 18.1667
}, {
  "title": "Császár",
  "latitude": 47.5,
  "longitude": 18.15
}, {
  "title": "Vérteskethely",
  "latitude": 47.4833,
  "longitude": 18.0833
}, {
  "title": "Bakonysárkány",
  "latitude": 47.45,
  "longitude": 18.1
}, {
  "title": "Aka",
  "latitude": 47.4,
  "longitude": 18.0667
}, {
  "title": "Kisbér",
  "latitude": 47.5,
  "longitude": 18.0333
}, {
  "title": "Ászár",
  "latitude": 47.5042,
  "longitude": 18
}, {
  "title": "Kerékteleki",
  "latitude": 47.5167,
  "longitude": 17.9333
}, {
  "title": "Bársonyos",
  "latitude": 47.5167,
  "longitude": 17.9167
}, {
  "title": "Bakonyszombathely",
  "latitude": 47.4667,
  "longitude": 17.9667
}, {
  "title": "Bakonybánk",
  "latitude": 47.4667,
  "longitude": 17.9
}, {
  "title": "Réde",
  "latitude": 47.4333,
  "longitude": 17.9167
}, {
  "title": "Ácsteszér",
  "latitude": 47.4,
  "longitude": 18.0167
}, {
  "title": "Csatka",
  "latitude": 47.3667,
  "longitude": 17.9833
}, {
  "title": "Súr",
  "latitude": 47.3667,
  "longitude": 18.0333
}, {
  "title": "Tata",
  "latitude": 47.65,
  "longitude": 18.3167
}, {
  "title": "Szomód",
  "latitude": 47.6833,
  "longitude": 18.35
}, {
  "title": "Dunaszentmiklós",
  "latitude": 47.7,
  "longitude": 18.3833
}, {
  "title": "Kocs",
  "latitude": 47.6,
  "longitude": 18.2167
}, {
  "title": "Naszály",
  "latitude": 47.7,
  "longitude": 18.2667
}, {
  "title": "Komárom",
  "latitude": 47.7333,
  "longitude": 18.1167
}, {
  "title": "Mocsa",
  "latitude": 47.6667,
  "longitude": 18.1833
}, {
  "title": "Almásfüzitő",
  "latitude": 47.7167,
  "longitude": 18.2667
}, {
  "title": "Ács",
  "latitude": 47.7,
  "longitude": 18.0167
}, {
  "title": "Nagyigmánd",
  "latitude": 47.6333,
  "longitude": 18.0833
}, {
  "title": "Bábolna",
  "latitude": 47.6333,
  "longitude": 17.9833
}, {
  "title": "Bana",
  "latitude": 47.65,
  "longitude": 17.9167
}, {
  "title": "Tárkány",
  "latitude": 47.5833,
  "longitude": 18
}, {
  "title": "Csép",
  "latitude": 47.5833,
  "longitude": 18.0667
}, {
  "title": "Ete",
  "latitude": 47.5,
  "longitude": 18.0333
}, {
  "title": "Kisigmánd",
  "latitude": 47.65,
  "longitude": 18.1
}, {
  "title": "Csém",
  "latitude": 47.6833,
  "longitude": 18.1
}, {
  "title": "Hatvan",
  "latitude": 47.6667,
  "longitude": 19.6833
}, {
  "title": "Heréd",
  "latitude": 47.7,
  "longitude": 19.6333
}, {
  "title": "Nagykökényes",
  "latitude": 47.7333,
  "longitude": 19.6
}, {
  "title": "Ecséd",
  "latitude": 47.7333,
  "longitude": 19.7833
}, {
  "title": "Hort",
  "latitude": 47.7,
  "longitude": 19.7833
}, {
  "title": "Csány",
  "latitude": 47.65,
  "longitude": 19.8333
}, {
  "title": "Boldog",
  "latitude": 47.6,
  "longitude": 19.7
}, {
  "title": "Lőrinci",
  "latitude": 47.7333,
  "longitude": 19.6833
}, {
  "title": "Petőfibánya",
  "latitude": 47.7667,
  "longitude": 19.7167
}, {
  "title": "Zagyvaszántó",
  "latitude": 47.7833,
  "longitude": 19.6833
}, {
  "title": "Apc",
  "latitude": 47.8,
  "longitude": 19.7
}, {
  "title": "Rózsaszentmárton",
  "latitude": 47.7833,
  "longitude": 19.75
}, {
  "title": "Szűcsi",
  "latitude": 47.8,
  "longitude": 19.7667
}, {
  "title": "Gyöngyöspata",
  "latitude": 47.8167,
  "longitude": 19.8
}, {
  "title": "Gyöngyöstarján",
  "latitude": 47.8,
  "longitude": 19.8667
}, {
  "title": "Héhalom",
  "latitude": 47.8,
  "longitude": 19.6
}, {
  "title": "Palotás",
  "latitude": 47.8,
  "longitude": 19.6
}, {
  "title": "Egyházasdengeleg",
  "latitude": 47.8,
  "longitude": 19.5667
}, {
  "title": "Szirák",
  "latitude": 47.8333,
  "longitude": 19.5333
}, {
  "title": "Bér",
  "latitude": 47.8667,
  "longitude": 19.5
}, {
  "title": "Kisbágyon",
  "latitude": 47.8167,
  "longitude": 19.5833
}, {
  "title": "Buják",
  "latitude": 47.8833,
  "longitude": 19.55
}, {
  "title": "Szarvasgede",
  "latitude": 47.8167,
  "longitude": 19.65
}, {
  "title": "Csécse",
  "latitude": 47.8667,
  "longitude": 19.6333
}, {
  "title": "Kozárd",
  "latitude": 47.9167,
  "longitude": 19.6167
}, {
  "title": "Ecseg",
  "latitude": 47.9,
  "longitude": 19.6
}, {
  "title": "Pásztó",
  "latitude": 47.9167,
  "longitude": 19.7
}, {
  "title": "Jobbágyi",
  "latitude": 47.8333,
  "longitude": 19.6833
}, {
  "title": "Szurdokpüspöki",
  "latitude": 47.85,
  "longitude": 19.6833
}, {
  "title": "Kutasó",
  "latitude": 47.95,
  "longitude": 19.55
}, {
  "title": "Bokor",
  "latitude": 47.9333,
  "longitude": 19.55
}, {
  "title": "Cserhátszentiván",
  "latitude": 47.9333,
  "longitude": 19.5833
}, {
  "title": "Felsőtold",
  "latitude": 47.9667,
  "longitude": 19.6167
}, {
  "title": "Garáb",
  "latitude": 47.9833,
  "longitude": 19.65
}, {
  "title": "Mátraszőlős",
  "latitude": 47.9667,
  "longitude": 19.6833
}, {
  "title": "Alsótold",
  "latitude": 47.95,
  "longitude": 19.6
}, {
  "title": "Bátonyterenye",
  "latitude": 47.9667,
  "longitude": 19.8333
}, {
  "title": "Tar",
  "latitude": 47.95,
  "longitude": 19.75
}, {
  "title": "Sámsonháza",
  "latitude": 47.9833,
  "longitude": 19.7333
}, {
  "title": "Márkháza",
  "latitude": 48.0167,
  "longitude": 19.7333
}, {
  "title": "Kisbárkány",
  "latitude": 48.0167,
  "longitude": 19.6833
}, {
  "title": "Nagybárkány",
  "latitude": 48,
  "longitude": 19.7
}, {
  "title": "Mátraverebély",
  "latitude": 47.9833,
  "longitude": 19.7833
}, {
  "title": "Salgótarján",
  "latitude": 48.1167,
  "longitude": 19.8167
}, {
  "title": "Cered",
  "latitude": 48.15,
  "longitude": 19.9667
}, {
  "title": "Zabar",
  "latitude": 48.1333,
  "longitude": 20.05
}, {
  "title": "Szilaspogony",
  "latitude": 48.1167,
  "longitude": 20.0333
}, {
  "title": "Bárna",
  "latitude": 48.1,
  "longitude": 19.9333
}, {
  "title": "Kazár",
  "latitude": 48.05,
  "longitude": 19.8667
}, {
  "title": "Vizslás",
  "latitude": 48.05,
  "longitude": 19.8167
}, {
  "title": "Lucfalva",
  "latitude": 48.0333,
  "longitude": 19.7
}, {
  "title": "Sóshartyán",
  "latitude": 48.0667,
  "longitude": 19.6833
}, {
  "title": "Nógrádmegyer",
  "latitude": 48.0667,
  "longitude": 19.6333
}, {
  "title": "Magyargéc",
  "latitude": 48.0833,
  "longitude": 19.6167
}, {
  "title": "Piliny",
  "latitude": 48.15,
  "longitude": 19.6
}, {
  "title": "Szécsényfelfalu",
  "latitude": 48.15,
  "longitude": 19.5667
}, {
  "title": "Etes",
  "latitude": 48.1167,
  "longitude": 19.7167
}, {
  "title": "Karancsberény",
  "latitude": 48.1833,
  "longitude": 19.75
}, {
  "title": "Ipolytarnóc",
  "latitude": 48.2333,
  "longitude": 19.6333
}, {
  "title": "Mátraszele",
  "latitude": 48.05,
  "longitude": 19.9
}, {
  "title": "Mátranovák",
  "latitude": 48.0333,
  "longitude": 19.9833
}, {
  "title": "Mátraterenye",
  "latitude": 48.0333,
  "longitude": 19.95
}, {
  "title": "Rákóczibánya",
  "latitude": 47.9875,
  "longitude": 19.9125
}, {
  "title": "Nemti",
  "latitude": 48.0167,
  "longitude": 19.9
}, {
  "title": "Dorogháza",
  "latitude": 47.9833,
  "longitude": 19.9
}, {
  "title": "Szuha",
  "latitude": 47.9833,
  "longitude": 19.9167
}, {
  "title": "Mátramindszent",
  "latitude": 47.9667,
  "longitude": 19.9333
}, {
  "title": "Kishartyán",
  "latitude": 48.0833,
  "longitude": 19.7167
}, {
  "title": "Ságújfalu",
  "latitude": 48.1,
  "longitude": 19.6833
}, {
  "title": "Karancsság",
  "latitude": 48.1167,
  "longitude": 19.6667
}, {
  "title": "Szalmatercs",
  "latitude": 48.1167,
  "longitude": 19.6333
}, {
  "title": "Endrefalva",
  "latitude": 48.1333,
  "longitude": 19.5833
}, {
  "title": "Szécsény",
  "latitude": 48.0833,
  "longitude": 19.5167
}, {
  "title": "Nagylóc",
  "latitude": 48.0333,
  "longitude": 19.5833
}, {
  "title": "Hollókő",
  "latitude": 48,
  "longitude": 19.6
}, {
  "title": "Rimóc",
  "latitude": 48.0333,
  "longitude": 19.5333
}, {
  "title": "Varsány",
  "latitude": 48.0333,
  "longitude": 19.5
}, {
  "title": "Nógrádsipek",
  "latitude": 48.0167,
  "longitude": 19.5
}, {
  "title": "Karancsalja",
  "latitude": 48.1333,
  "longitude": 19.75
}, {
  "title": "Karancslapujtő",
  "latitude": 48.15,
  "longitude": 19.7333
}, {
  "title": "Karancskeszi",
  "latitude": 48.1667,
  "longitude": 19.7
}, {
  "title": "Mihálygerge",
  "latitude": 48.2,
  "longitude": 19.6333
}, {
  "title": "Egyházasgerge",
  "latitude": 48.1833,
  "longitude": 19.65
}, {
  "title": "Litke",
  "latitude": 48.2167,
  "longitude": 19.6
}, {
  "title": "Nógrádszakál",
  "latitude": 48.1833,
  "longitude": 19.5333
}, {
  "title": "Ludányhalászi",
  "latitude": 48.1333,
  "longitude": 19.5167
}, {
  "title": "Gyöngyös",
  "latitude": 47.7833,
  "longitude": 19.9333
}, {
  "title": "Gyöngyösoroszi",
  "latitude": 47.8333,
  "longitude": 19.9
}, {
  "title": "Gyöngyöshalász",
  "latitude": 47.7333,
  "longitude": 19.9333
}, {
  "title": "Atkár",
  "latitude": 47.7167,
  "longitude": 19.9
}, {
  "title": "Nagyréde",
  "latitude": 47.7667,
  "longitude": 19.85
}, {
  "title": "Gyöngyössolymos",
  "latitude": 47.8167,
  "longitude": 19.9333
}, {
  "title": "Mátraszentimre",
  "latitude": 47.9167,
  "longitude": 19.8833
}, {
  "title": "Parád",
  "latitude": 47.9167,
  "longitude": 20.0333
}, {
  "title": "Parádsasvár",
  "latitude": 47.9167,
  "longitude": 19.9833
}, {
  "title": "Bodony",
  "latitude": 47.95,
  "longitude": 20.0333
}, {
  "title": "Recsk",
  "latitude": 47.9333,
  "longitude": 20.1167
}, {
  "title": "Mátraderecske",
  "latitude": 47.95,
  "longitude": 20.0833
}, {
  "title": "Mátraballa",
  "latitude": 47.9833,
  "longitude": 20.0333
}, {
  "title": "Ivád",
  "latitude": 48.0167,
  "longitude": 20.0667
}, {
  "title": "Pétervására",
  "latitude": 48.0167,
  "longitude": 20.1
}, {
  "title": "Erdőkövesd",
  "latitude": 48.0333,
  "longitude": 20.1
}, {
  "title": "Istenmezeje",
  "latitude": 48.0833,
  "longitude": 20.05
}, {
  "title": "Váraszó",
  "latitude": 48.0333,
  "longitude": 20.1167
}, {
  "title": "Fedémes",
  "latitude": 48.0333,
  "longitude": 20.2
}, {
  "title": "Kisfüzes",
  "latitude": 47.9833,
  "longitude": 20.1333
}, {
  "title": "Bükkszenterzsébet",
  "latitude": 48.05,
  "longitude": 20.1667
}, {
  "title": "Tarnalelesz",
  "latitude": 48.05,
  "longitude": 20.1833
}, {
  "title": "Szentdomonkos",
  "latitude": 48.0667,
  "longitude": 20.2
}, {
  "title": "Abasár",
  "latitude": 47.8,
  "longitude": 20
}, {
  "title": "Markaz",
  "latitude": 47.8167,
  "longitude": 20.0667
}, {
  "title": "Domoszló",
  "latitude": 47.8333,
  "longitude": 20.1167
}, {
  "title": "Kisnána",
  "latitude": 47.85,
  "longitude": 20.15
}, {
  "title": "Vécs",
  "latitude": 47.8167,
  "longitude": 20.1667
}, {
  "title": "Visonta",
  "latitude": 47.7833,
  "longitude": 20.0333
}, {
  "title": "Halmajugra",
  "latitude": 47.7667,
  "longitude": 20.0667
}, {
  "title": "Ludas",
  "latitude": 47.7333,
  "longitude": 20.1
}, {
  "title": "Detk",
  "latitude": 47.75,
  "longitude": 20.1
}, {
  "title": "Karácsond",
  "latitude": 47.7333,
  "longitude": 20.0333
}, {
  "title": "Nagyfüged",
  "latitude": 47.6833,
  "longitude": 20.1167
}, {
  "title": "Tarnazsadány",
  "latitude": 47.6667,
  "longitude": 20.1667
}, {
  "title": "Tarnaméra",
  "latitude": 47.65,
  "longitude": 20.1667
}, {
  "title": "Vámosgyörk",
  "latitude": 47.6833,
  "longitude": 19.9333
}, {
  "title": "Adács",
  "latitude": 47.7,
  "longitude": 19.9833
}, {
  "title": "Visznek",
  "latitude": 47.65,
  "longitude": 20.0333
}, {
  "title": "Tarnaörs",
  "latitude": 47.66,
  "longitude": 20.03
}, {
  "title": "Erk",
  "latitude": 47.6167,
  "longitude": 20.0833
}, {
  "title": "Zaránk",
  "latitude": 47.65,
  "longitude": 20.1167
}, {
  "title": "Eger",
  "latitude": 47.9058,
  "longitude": 20.3709
}, {
  "title": "Eger",
  "latitude": 47.9,
  "longitude": 20.3833
}, {
  "title": "Egerbakta",
  "latitude": 47.9333,
  "longitude": 20.3
}, {
  "title": "Hevesaranyos",
  "latitude": 48.0167,
  "longitude": 20.2333
}, {
  "title": "Szarvaskő",
  "latitude": 47.9,
  "longitude": 20.3833
}, {
  "title": "Felsőtárkány",
  "latitude": 47.9667,
  "longitude": 20.4167
}, {
  "title": "Noszvaj",
  "latitude": 47.9333,
  "longitude": 20.4833
}, {
  "title": "Ostoros",
  "latitude": 47.8667,
  "longitude": 20.4333
}, {
  "title": "Novaj",
  "latitude": 47.85,
  "longitude": 20.4833
}, {
  "title": "Egerszólát",
  "latitude": 47.8833,
  "longitude": 20.2667
}, {
  "title": "Tarnaszentmária",
  "latitude": 47.8833,
  "longitude": 20.2
}, {
  "title": "Sirok",
  "latitude": 47.9333,
  "longitude": 20.2
}, {
  "title": "Terpes",
  "latitude": 47.9667,
  "longitude": 20.15
}, {
  "title": "Szajla",
  "latitude": 47.9667,
  "longitude": 20.15
}, {
  "title": "Bükkszék",
  "latitude": 47.9833,
  "longitude": 20.1833
}, {
  "title": "Bátor",
  "latitude": 47.9833,
  "longitude": 20.2667
}, {
  "title": "Egerbocs",
  "latitude": 48.0333,
  "longitude": 20.2667
}, {
  "title": "Szúcs",
  "latitude": 48.05,
  "longitude": 20.25
}, {
  "title": "Egercsehi",
  "latitude": 48.05,
  "longitude": 20.2833
}, {
  "title": "Bekölce",
  "latitude": 48.0833,
  "longitude": 20.2833
}, {
  "title": "Mikófalva",
  "latitude": 48.05,
  "longitude": 20.3167
}, {
  "title": "Mónosbél",
  "latitude": 48.0333,
  "longitude": 20.35
}, {
  "title": "Bélapátfalva",
  "latitude": 48.05,
  "longitude": 20.3667
}, {
  "title": "Bükkszentmárton",
  "latitude": 48.0667,
  "longitude": 20.35
}, {
  "title": "Balaton",
  "latitude": 48.1,
  "longitude": 20.3167
}, {
  "title": "Szilvásvárad",
  "latitude": 48.1,
  "longitude": 20.4
}, {
  "title": "Nagyvisnyó",
  "latitude": 48.1333,
  "longitude": 20.4333
}, {
  "title": "Kál",
  "latitude": 47.7333,
  "longitude": 20.2667
}, {
  "title": "Verpelét",
  "latitude": 47.85,
  "longitude": 20.2333
}, {
  "title": "Feldebrő",
  "latitude": 47.8167,
  "longitude": 20.25
}, {
  "title": "Aldebrő",
  "latitude": 47.8,
  "longitude": 20.2333
}, {
  "title": "Tófalu",
  "latitude": 47.7833,
  "longitude": 20.25
}, {
  "title": "Kápolna",
  "latitude": 47.7667,
  "longitude": 20.25
}, {
  "title": "Kompolt",
  "latitude": 47.7333,
  "longitude": 20.25
}, {
  "title": "Nagyút",
  "latitude": 47.7167,
  "longitude": 20.1667
}, {
  "title": "Erdőtelek",
  "latitude": 47.6833,
  "longitude": 20.3167
}, {
  "title": "Tenk",
  "latitude": 47.65,
  "longitude": 20.35
}, {
  "title": "Heves",
  "latitude": 47.6,
  "longitude": 20.2833
}, {
  "title": "Boconád",
  "latitude": 47.6333,
  "longitude": 20.2
}, {
  "title": "Tarnabod",
  "latitude": 47.6833,
  "longitude": 20.2333
}, {
  "title": "Átány",
  "latitude": 47.6167,
  "longitude": 20.3667
}, {
  "title": "Kömlő",
  "latitude": 47.6,
  "longitude": 20.45
}, {
  "title": "Besenyőtelek",
  "latitude": 47.7,
  "longitude": 20.4333
}, {
  "title": "Dormánd",
  "latitude": 47.7167,
  "longitude": 20.4167
}, {
  "title": "Mezőtárkány",
  "latitude": 47.7167,
  "longitude": 20.4833
}, {
  "title": "Szihalom",
  "latitude": 47.7667,
  "longitude": 20.4833
}, {
  "title": "Mezőszemere",
  "latitude": 47.75,
  "longitude": 20.5333
}, {
  "title": "Egerfarmos",
  "latitude": 47.7167,
  "longitude": 20.55
}, {
  "title": "Pély",
  "latitude": 47.4833,
  "longitude": 20.35
}, {
  "title": "Tarnaszentmiklós",
  "latitude": 47.5333,
  "longitude": 20.3833
}, {
  "title": "Hevesvezekény",
  "latitude": 47.55,
  "longitude": 20.3667
}, {
  "title": "Kisköre",
  "latitude": 47.5,
  "longitude": 20.5
}, {
  "title": "Tiszanána",
  "latitude": 47.5667,
  "longitude": 20.5333
}, {
  "title": "Sarud",
  "latitude": 47.5833,
  "longitude": 20.6
}, {
  "title": "Újlőrincfalva",
  "latitude": 47.6333,
  "longitude": 20.6
}, {
  "title": "Poroszló",
  "latitude": 47.65,
  "longitude": 20.6667
}, {
  "title": "Füzesabony",
  "latitude": 47.75,
  "longitude": 20.4167
}, {
  "title": "Egerszalók",
  "latitude": 47.8667,
  "longitude": 20.3333
}, {
  "title": "Demjén",
  "latitude": 47.8333,
  "longitude": 20.3333
}, {
  "title": "Kerecsend",
  "latitude": 47.8,
  "longitude": 20.35
}, {
  "title": "Maklár",
  "latitude": 47.8,
  "longitude": 20.4167
}, {
  "title": "Nagytálya",
  "latitude": 47.8167,
  "longitude": 20.4167
}, {
  "title": "Andornaktálya",
  "latitude": 47.85,
  "longitude": 20.4167
}, {
  "title": "Mezőkövesd",
  "latitude": 47.8167,
  "longitude": 20.5833
}, {
  "title": "Szomolya",
  "latitude": 47.9,
  "longitude": 20.5
}, {
  "title": "Bogács",
  "latitude": 47.9,
  "longitude": 20.5333
}, {
  "title": "Cserépfalu",
  "latitude": 47.9333,
  "longitude": 20.5333
}, {
  "title": "Bükkzsérc",
  "latitude": 47.9667,
  "longitude": 20.5
}, {
  "title": "Tard",
  "latitude": 47.8833,
  "longitude": 20.6167
}, {
  "title": "Cserépváralja",
  "latitude": 47.9333,
  "longitude": 20.5667
}, {
  "title": "Szentistván",
  "latitude": 47.7667,
  "longitude": 20.6667
}, {
  "title": "Mezőnyárád",
  "latitude": 47.8667,
  "longitude": 20.6833
}, {
  "title": "Bükkábrány",
  "latitude": 47.8833,
  "longitude": 20.6833
}, {
  "title": "Tibolddaróc",
  "latitude": 47.9167,
  "longitude": 20.6333
}, {
  "title": "Kács",
  "latitude": 47.95,
  "longitude": 20.6167
}, {
  "title": "Sály",
  "latitude": 47.95,
  "longitude": 20.6667
}, {
  "title": "Borsodgeszt",
  "latitude": 47.95,
  "longitude": 20.7
}, {
  "title": "Vatta",
  "latitude": 47.9167,
  "longitude": 20.75
}, {
  "title": "Emőd",
  "latitude": 47.9333,
  "longitude": 20.8167
}, {
  "title": "Nyékládháza",
  "latitude": 47.9833,
  "longitude": 20.8333
}, {
  "title": "Mályi",
  "latitude": 48.0167,
  "longitude": 20.8333
}, {
  "title": "Mezőkeresztes",
  "latitude": 47.8333,
  "longitude": 20.7
}, {
  "title": "Csincse",
  "latitude": 47.8833,
  "longitude": 20.7667
}, {
  "title": "Mezőnagymihály",
  "latitude": 47.8167,
  "longitude": 20.7333
}, {
  "title": "Gelej",
  "latitude": 47.8333,
  "longitude": 20.7833
}, {
  "title": "Mezőcsát",
  "latitude": 47.8167,
  "longitude": 20.9167
}, {
  "title": "Tiszakeszi",
  "latitude": 47.7833,
  "longitude": 21
}, {
  "title": "Igrici",
  "latitude": 47.8667,
  "longitude": 20.8833
}, {
  "title": "Egerlövő",
  "latitude": 47.7167,
  "longitude": 20.6333
}, {
  "title": "Borsodivánka",
  "latitude": 47.7,
  "longitude": 20.6667
}, {
  "title": "Négyes",
  "latitude": 47.7,
  "longitude": 20.7167
}, {
  "title": "Tiszavalk",
  "latitude": 47.6833,
  "longitude": 20.75
}, {
  "title": "Tiszabábolna",
  "latitude": 47.6833,
  "longitude": 20.8167
}, {
  "title": "Tiszadorogma",
  "latitude": 47.6833,
  "longitude": 20.8667
}, {
  "title": "Ároktő",
  "latitude": 47.7333,
  "longitude": 20.95
}, {
  "title": "Miskolc",
  "latitude": 47.9804,
  "longitude": 20.9354
}, {
  "title": "Ónod",
  "latitude": 48,
  "longitude": 20.9167
}, {
  "title": "Muhi",
  "latitude": 47.9833,
  "longitude": 20.9333
}, {
  "title": "Kistokaj",
  "latitude": 48.05,
  "longitude": 20.85
}, {
  "title": "Bükkaranyos",
  "latitude": 47.9833,
  "longitude": 20.7833
}, {
  "title": "Harsány",
  "latitude": 47.9667,
  "longitude": 20.75
}, {
  "title": "Kisgyőr",
  "latitude": 48.0167,
  "longitude": 20.7
}, {
  "title": "Bükkszentkereszt",
  "latitude": 48.0667,
  "longitude": 20.6333
}, {
  "title": "Répáshuta",
  "latitude": 48.05,
  "longitude": 20.5333
}, {
  "title": "Felsőzsolca",
  "latitude": 48.1,
  "longitude": 20.8667
}, {
  "title": "Onga",
  "latitude": 48.1167,
  "longitude": 20.9167
}, {
  "title": "Hernádkak",
  "latitude": 48.0833,
  "longitude": 20.9667
}, {
  "title": "Hernádnémeti",
  "latitude": 48.0667,
  "longitude": 20.9833
}, {
  "title": "Tiszalúc",
  "latitude": 48.0333,
  "longitude": 21.0833
}, {
  "title": "Alsózsolca",
  "latitude": 48.0667,
  "longitude": 20.8833
}, {
  "title": "Sajólád",
  "latitude": 48.05,
  "longitude": 20.9
}, {
  "title": "Sajópetri",
  "latitude": 48.0333,
  "longitude": 20.9
}, {
  "title": "Bőcs",
  "latitude": 48.05,
  "longitude": 20.9667
}, {
  "title": "Berzék",
  "latitude": 48.0167,
  "longitude": 20.95
}, {
  "title": "Sajóhídvég",
  "latitude": 48,
  "longitude": 20.95
}, {
  "title": "Köröm",
  "latitude": 47.9833,
  "longitude": 20.95
}, {
  "title": "Girincs",
  "latitude": 47.9667,
  "longitude": 20.9833
}, {
  "title": "Kiscsécs",
  "latitude": 47.9667,
  "longitude": 21.0167
}, {
  "title": "Kesznyéten",
  "latitude": 47.9667,
  "longitude": 21.05
}, {
  "title": "Tiszaújváros",
  "latitude": 47.9333,
  "longitude": 21.0833
}, {
  "title": "Sajóörös",
  "latitude": 47.95,
  "longitude": 21.0333
}, {
  "title": "Tiszapalkonya",
  "latitude": 47.8833,
  "longitude": 21.0667
}, {
  "title": "Hejőkürt",
  "latitude": 47.8667,
  "longitude": 21
}, {
  "title": "Tiszatarján",
  "latitude": 47.8333,
  "longitude": 21.0167
}, {
  "title": "Oszlár",
  "latitude": 47.8833,
  "longitude": 21.0333
}, {
  "title": "Nemesbikk",
  "latitude": 47.8833,
  "longitude": 20.9667
}, {
  "title": "Hejőbába",
  "latitude": 47.9,
  "longitude": 20.95
}, {
  "title": "Hejőpapi",
  "latitude": 47.9,
  "longitude": 20.9167
}, {
  "title": "Hejőszalonta",
  "latitude": 47.9333,
  "longitude": 20.8833
}, {
  "title": "Szakáld",
  "latitude": 47.95,
  "longitude": 20.9167
}, {
  "title": "Hejőkeresztúr",
  "latitude": 47.9667,
  "longitude": 20.8833
}, {
  "title": "Nagycsécs",
  "latitude": 47.9667,
  "longitude": 20.95
}, {
  "title": "Sajószöged",
  "latitude": 47.95,
  "longitude": 21
}, {
  "title": "Ózd",
  "latitude": 48.2167,
  "longitude": 20.3
}, {
  "title": "Uppony",
  "latitude": 48.2167,
  "longitude": 20.4333
}, {
  "title": "Borsodszentgyörgy",
  "latitude": 48.1833,
  "longitude": 20.2
}, {
  "title": "Hangony",
  "latitude": 48.2333,
  "longitude": 20.2
}, {
  "title": "Kissikátor",
  "latitude": 48.2,
  "longitude": 20.1333
}, {
  "title": "Domaháza",
  "latitude": 48.1833,
  "longitude": 20.1167
}, {
  "title": "Putnok",
  "latitude": 48.3,
  "longitude": 20.4333
}, {
  "title": "Dubicsány",
  "latitude": 48.2833,
  "longitude": 20.5
}, {
  "title": "Sajógalgóc",
  "latitude": 48.3,
  "longitude": 20.5333
}, {
  "title": "Vadna",
  "latitude": 48.2667,
  "longitude": 20.5667
}, {
  "title": "Nagybarca",
  "latitude": 48.25,
  "longitude": 20.5333
}, {
  "title": "Bánhorváti",
  "latitude": 48.2333,
  "longitude": 20.5167
}, {
  "title": "Dédestapolcsány",
  "latitude": 48.1833,
  "longitude": 20.4833
}, {
  "title": "Tardona",
  "latitude": 48.1667,
  "longitude": 20.5333
}, {
  "title": "Mályinka",
  "latitude": 48.15,
  "longitude": 20.5
}, {
  "title": "Nekézseny",
  "latitude": 48.1667,
  "longitude": 20.4333
}, {
  "title": "Csokvaomány",
  "latitude": 48.1667,
  "longitude": 20.3833
}, {
  "title": "Lénárddaróc",
  "latitude": 48.15,
  "longitude": 20.3833
}, {
  "title": "Bükkmogyorósd",
  "latitude": 48.1333,
  "longitude": 20.3667
}, {
  "title": "Csernely",
  "latitude": 48.15,
  "longitude": 20.35
}, {
  "title": "Sajónémeti",
  "latitude": 48.2667,
  "longitude": 20.3833
}, {
  "title": "Sajópüspöki",
  "latitude": 48.2833,
  "longitude": 20.35
}, {
  "title": "Bánréve",
  "latitude": 48.3,
  "longitude": 20.3667
}, {
  "title": "Hét",
  "latitude": 48.2833,
  "longitude": 20.3833
}, {
  "title": "Sajómercse",
  "latitude": 48.25,
  "longitude": 20.4167
}, {
  "title": "Sajóvelezd",
  "latitude": 48.2667,
  "longitude": 20.4667
}, {
  "title": "Királd",
  "latitude": 48.25,
  "longitude": 20.4
}, {
  "title": "Borsodbóta",
  "latitude": 48.2167,
  "longitude": 20.4
}, {
  "title": "Sáta",
  "latitude": 48.1833,
  "longitude": 20.4
}, {
  "title": "Arló",
  "latitude": 48.1833,
  "longitude": 20.2667
}, {
  "title": "Járdánháza",
  "latitude": 48.15,
  "longitude": 20.25
}, {
  "title": "Borsodnádasd",
  "latitude": 48.1167,
  "longitude": 20.25
}, {
  "title": "Kazincbarcika",
  "latitude": 48.25,
  "longitude": 20.6333
}, {
  "title": "Szirmabesenyő",
  "latitude": 48.15,
  "longitude": 20.8
}, {
  "title": "Sajósenye",
  "latitude": 48.2,
  "longitude": 20.8333
}, {
  "title": "Sajóvámos",
  "latitude": 48.1833,
  "longitude": 20.85
}, {
  "title": "Arnót",
  "latitude": 48.1333,
  "longitude": 20.8667
}, {
  "title": "Sajópálfala",
  "latitude": 48.1667,
  "longitude": 20.85
}, {
  "title": "Gesztely",
  "latitude": 48.1,
  "longitude": 20.9667
}, {
  "title": "Újcsanálos",
  "latitude": 48.1333,
  "longitude": 21.0167
}, {
  "title": "Sóstófalva",
  "latitude": 48.15,
  "longitude": 21
}, {
  "title": "Alsódobsza",
  "latitude": 48.1833,
  "longitude": 21
}, {
  "title": "Megyaszó",
  "latitude": 48.1833,
  "longitude": 21.05
}, {
  "title": "Sajókaza",
  "latitude": 48.2833,
  "longitude": 20.5833
}, {
  "title": "Sajóivánka",
  "latitude": 48.2667,
  "longitude": 20.5833
}, {
  "title": "Felsőnyárád",
  "latitude": 48.3333,
  "longitude": 20.6
}, {
  "title": "Jákfalva",
  "latitude": 48.3333,
  "longitude": 20.5833
}, {
  "title": "Dövény",
  "latitude": 48.35,
  "longitude": 20.55
}, {
  "title": "Felsőkelecsény",
  "latitude": 48.3667,
  "longitude": 20.6
}, {
  "title": "Zubogy",
  "latitude": 48.3833,
  "longitude": 20.5833
}, {
  "title": "Imola",
  "latitude": 48.4167,
  "longitude": 20.55
}, {
  "title": "Ragály",
  "latitude": 48.4,
  "longitude": 20.5167
}, {
  "title": "Trizs",
  "latitude": 48.4333,
  "longitude": 20.5
}, {
  "title": "Alsószuha",
  "latitude": 48.3667,
  "longitude": 20.5167
}, {
  "title": "Szuhafő",
  "latitude": 48.4167,
  "longitude": 20.45
}, {
  "title": "Zádorfalva",
  "latitude": 48.3833,
  "longitude": 20.4833
}, {
  "title": "Gömörszőlős",
  "latitude": 48.3833,
  "longitude": 20.4333
}, {
  "title": "Kelemér",
  "latitude": 48.35,
  "longitude": 20.4333
}, {
  "title": "Serényfalva",
  "latitude": 48.3167,
  "longitude": 20.4
}, {
  "title": "Szuhakálló",
  "latitude": 48.2833,
  "longitude": 20.6667
}, {
  "title": "Kurityán",
  "latitude": 48.3167,
  "longitude": 20.6333
}, {
  "title": "Rudabánya",
  "latitude": 48.3833,
  "longitude": 20.6333
}, {
  "title": "Szuhogy",
  "latitude": 48.3833,
  "longitude": 20.6833
}, {
  "title": "Kánó",
  "latitude": 48.4333,
  "longitude": 20.6
}, {
  "title": "Felsőtelekes",
  "latitude": 48.4,
  "longitude": 20.6333
}, {
  "title": "Alsótelekes",
  "latitude": 48.4167,
  "longitude": 20.6667
}, {
  "title": "Izsófalva",
  "latitude": 48.3,
  "longitude": 20.6667
}, {
  "title": "Rudolftelep",
  "latitude": 48.3167,
  "longitude": 20.6833
}, {
  "title": "Ormosbánya",
  "latitude": 48.35,
  "longitude": 20.65
}, {
  "title": "Múcsony",
  "latitude": 48.2667,
  "longitude": 20.6833
}, {
  "title": "Szendrőlád",
  "latitude": 48.35,
  "longitude": 20.75
}, {
  "title": "Galvács",
  "latitude": 48.4167,
  "longitude": 20.7833
}, {
  "title": "Szendrő",
  "latitude": 48.4,
  "longitude": 20.7333
}, {
  "title": "Abod",
  "latitude": 48.4,
  "longitude": 20.8
}, {
  "title": "Szalonna",
  "latitude": 48.45,
  "longitude": 20.75
}, {
  "title": "Meszes",
  "latitude": 48.4333,
  "longitude": 20.8
}, {
  "title": "Martonyi",
  "latitude": 48.4667,
  "longitude": 20.7667
}, {
  "title": "Varbóc",
  "latitude": 48.4667,
  "longitude": 20.65
}, {
  "title": "Perkupa",
  "latitude": 48.4667,
  "longitude": 20.7
}, {
  "title": "Égerszög",
  "latitude": 48.45,
  "longitude": 20.5833
}, {
  "title": "Teresztenye",
  "latitude": 48.45,
  "longitude": 20.6167
}, {
  "title": "Szőlősardó",
  "latitude": 48.45,
  "longitude": 20.6333
}, {
  "title": "Jósvafő",
  "latitude": 48.4833,
  "longitude": 20.5667
}, {
  "title": "Aggtelek",
  "latitude": 48.4667,
  "longitude": 20.5167
}, {
  "title": "Szin",
  "latitude": 48.5,
  "longitude": 20.6667
}, {
  "title": "Tornakápolna",
  "latitude": 48.4667,
  "longitude": 20.6167
}, {
  "title": "Szinpetri",
  "latitude": 48.4833,
  "longitude": 20.6333
}, {
  "title": "Szögliget",
  "latitude": 48.5167,
  "longitude": 20.6833
}, {
  "title": "Bódvaszilas",
  "latitude": 48.5333,
  "longitude": 20.7333
}, {
  "title": "Bódvarákó",
  "latitude": 48.5167,
  "longitude": 20.75
}, {
  "title": "Tornaszentandrás",
  "latitude": 48.5167,
  "longitude": 20.7833
}, {
  "title": "Komjáti",
  "latitude": 48.55,
  "longitude": 20.7667
}, {
  "title": "Tornabarakony",
  "latitude": 48.5,
  "longitude": 20.8167
}, {
  "title": "Tornanádaska",
  "latitude": 48.5667,
  "longitude": 20.7833
}, {
  "title": "Hidvégardó",
  "latitude": 48.5667,
  "longitude": 20.85
}, {
  "title": "Bódvalenke",
  "latitude": 48.55,
  "longitude": 20.8167
}, {
  "title": "Becskeháza",
  "latitude": 48.5333,
  "longitude": 20.85
}, {
  "title": "Tornaszentjakab",
  "latitude": 48.5167,
  "longitude": 20.8833
}, {
  "title": "Sajószentpéter",
  "latitude": 48.2167,
  "longitude": 20.7167
}, {
  "title": "Sajókápolna",
  "latitude": 48.2,
  "longitude": 20.7
}, {
  "title": "Sajólászlófalva",
  "latitude": 48.1833,
  "longitude": 20.6833
}, {
  "title": "Kondó",
  "latitude": 48.2,
  "longitude": 20.65
}, {
  "title": "Radostyán",
  "latitude": 48.1833,
  "longitude": 20.6667
}, {
  "title": "Parasznya",
  "latitude": 48.1667,
  "longitude": 20.65
}, {
  "title": "Varbó",
  "latitude": 48.1667,
  "longitude": 20.6333
}, {
  "title": "Alacska",
  "latitude": 48.2167,
  "longitude": 20.65
}, {
  "title": "Ládbesenyő",
  "latitude": 48.3,
  "longitude": 20.7333
}, {
  "title": "Damak",
  "latitude": 48.3167,
  "longitude": 20.8333
}, {
  "title": "Balajt",
  "latitude": 48.3,
  "longitude": 20.7333
}, {
  "title": "Edelény",
  "latitude": 48.3,
  "longitude": 20.7333
}, {
  "title": "Irota",
  "latitude": 48.4,
  "longitude": 20.8833
}, {
  "title": "Szakácsi",
  "latitude": 48.3833,
  "longitude": 20.8667
}, {
  "title": "Hegymeg",
  "latitude": 48.3333,
  "longitude": 20.8667
}, {
  "title": "Lak",
  "latitude": 48.35,
  "longitude": 20.8667
}, {
  "title": "Tomor",
  "latitude": 48.3333,
  "longitude": 20.8833
}, {
  "title": "Sajókeresztúr",
  "latitude": 48.1667,
  "longitude": 20.7833
}, {
  "title": "Sajóbábony",
  "latitude": 48.1667,
  "longitude": 20.7333
}, {
  "title": "Sajóecseg",
  "latitude": 48.2,
  "longitude": 20.7833
}, {
  "title": "Boldva",
  "latitude": 48.2167,
  "longitude": 20.8
}, {
  "title": "Ziliz",
  "latitude": 48.25,
  "longitude": 20.8
}, {
  "title": "Hangács",
  "latitude": 48.3,
  "longitude": 20.8333
}, {
  "title": "Nyomár",
  "latitude": 48.2833,
  "longitude": 20.8167
}, {
  "title": "Borsodszirák",
  "latitude": 48.2667,
  "longitude": 20.7667
}, {
  "title": "Szikszó",
  "latitude": 48.2,
  "longitude": 20.9333
}, {
  "title": "Abaújszolnok",
  "latitude": 48.3667,
  "longitude": 20.9833
}, {
  "title": "Nyésta",
  "latitude": 48.3667,
  "longitude": 20.95
}, {
  "title": "Selyeb",
  "latitude": 48.3333,
  "longitude": 20.9667
}, {
  "title": "Alsóvadász",
  "latitude": 48.25,
  "longitude": 20.9167
}, {
  "title": "Monaj",
  "latitude": 48.3,
  "longitude": 20.95
}, {
  "title": "Homrogd",
  "latitude": 48.2833,
  "longitude": 20.9167
}, {
  "title": "Kupa",
  "latitude": 48.3333,
  "longitude": 20.9167
}, {
  "title": "Felsővadász",
  "latitude": 48.3667,
  "longitude": 20.9333
}, {
  "title": "Gadna",
  "latitude": 48.4,
  "longitude": 20.9333
}, {
  "title": "Abaújlak",
  "latitude": 48.4,
  "longitude": 20.9667
}, {
  "title": "Gagyvendégi",
  "latitude": 48.4333,
  "longitude": 20.9833
}, {
  "title": "Gagybátor",
  "latitude": 48.4333,
  "longitude": 20.95
}, {
  "title": "Pamlény",
  "latitude": 48.5,
  "longitude": 20.9333
}, {
  "title": "Büttös",
  "latitude": 48.4833,
  "longitude": 21.0167
}, {
  "title": "Szászfa",
  "latitude": 48.4667,
  "longitude": 20.95
}, {
  "title": "Kány",
  "latitude": 48.5167,
  "longitude": 21.0167
}, {
  "title": "Perecse",
  "latitude": 48.5,
  "longitude": 21
}, {
  "title": "Krasznokvajda",
  "latitude": 48.4667,
  "longitude": 20.9833
}, {
  "title": "Keresztéte",
  "latitude": 48.5,
  "longitude": 20.95
}, {
  "title": "Debréte",
  "latitude": 48.5,
  "longitude": 20.8667
}, {
  "title": "Rakaca",
  "latitude": 48.4667,
  "longitude": 20.9
}, {
  "title": "Viszló",
  "latitude": 48.5,
  "longitude": 20.9
}, {
  "title": "Rakacaszend",
  "latitude": 48.4667,
  "longitude": 20.85
}, {
  "title": "Kázsmárk",
  "latitude": 48.2833,
  "longitude": 20.9833
}, {
  "title": "Léh",
  "latitude": 48.2833,
  "longitude": 20.9833
}, {
  "title": "Rásonysápberencs",
  "latitude": 48.3167,
  "longitude": 21
}, {
  "title": "Beret",
  "latitude": 48.35,
  "longitude": 21.0333
}, {
  "title": "Detek",
  "latitude": 48.3333,
  "longitude": 21.0333
}, {
  "title": "Baktakék",
  "latitude": 48.3833,
  "longitude": 21.0333
}, {
  "title": "Felsőgagy",
  "latitude": 48.4333,
  "longitude": 21.0167
}, {
  "title": "Gagyapáti",
  "latitude": 48.4167,
  "longitude": 21
}, {
  "title": "Alsógagy",
  "latitude": 48.4,
  "longitude": 21.0333
}, {
  "title": "Csenyéte",
  "latitude": 48.4333,
  "longitude": 21.05
}, {
  "title": "Aszaló",
  "latitude": 48.2167,
  "longitude": 20.9667
}, {
  "title": "Halmaj",
  "latitude": 48.25,
  "longitude": 21
}, {
  "title": "Kiskinizs",
  "latitude": 48.25,
  "longitude": 21.05
}, {
  "title": "Szentistvánbaksa",
  "latitude": 48.2167,
  "longitude": 21.0333
}, {
  "title": "Nagykinizs",
  "latitude": 48.2333,
  "longitude": 21.0333
}, {
  "title": "Hernádkércs",
  "latitude": 48.25,
  "longitude": 21.05
}, {
  "title": "Felsődobsza",
  "latitude": 48.2667,
  "longitude": 21.0667
}, {
  "title": "Csobád",
  "latitude": 48.2833,
  "longitude": 21.0333
}, {
  "title": "Forró",
  "latitude": 48.3167,
  "longitude": 21.0833
}, {
  "title": "Ináncs",
  "latitude": 48.2833,
  "longitude": 21.0667
}, {
  "title": "Hernádszentandrás",
  "latitude": 48.2833,
  "longitude": 21.1
}, {
  "title": "Pere",
  "latitude": 48.2833,
  "longitude": 21.1333
}, {
  "title": "Hernádbűd",
  "latitude": 48.3,
  "longitude": 21.1333
}, {
  "title": "Fancsal",
  "latitude": 48.35,
  "longitude": 21.0667
}, {
  "title": "Encs",
  "latitude": 48.3333,
  "longitude": 21.1333
}, {
  "title": "Szalaszend",
  "latitude": 48.3833,
  "longitude": 21.1333
}, {
  "title": "Fulókércs",
  "latitude": 48.4333,
  "longitude": 21.1167
}, {
  "title": "Fáj",
  "latitude": 48.4167,
  "longitude": 21.0833
}, {
  "title": "Szemere",
  "latitude": 48.4667,
  "longitude": 21.1
}, {
  "title": "Litka",
  "latitude": 48.45,
  "longitude": 21.0667
}, {
  "title": "Méra",
  "latitude": 48.35,
  "longitude": 21.15
}, {
  "title": "Novajidrány",
  "latitude": 48.4,
  "longitude": 21.1833
}, {
  "title": "Garadna",
  "latitude": 48.4167,
  "longitude": 21.1833
}, {
  "title": "Pusztaradvány",
  "latitude": 48.4667,
  "longitude": 21.1333
}, {
  "title": "Hernádvécse",
  "latitude": 48.45,
  "longitude": 21.1667
}, {
  "title": "Hernádpetri",
  "latitude": 48.4833,
  "longitude": 21.1667
}, {
  "title": "Hernádszurdok",
  "latitude": 48.4833,
  "longitude": 21.2167
}, {
  "title": "Hidasnémeti",
  "latitude": 48.5,
  "longitude": 21.2333
}, {
  "title": "Tornyosnémeti",
  "latitude": 48.5167,
  "longitude": 21.2667
}, {
  "title": "Abaújszántó",
  "latitude": 48.2833,
  "longitude": 21.2
}, {
  "title": "Sima",
  "latitude": 48.3,
  "longitude": 21.3
}, {
  "title": "Baskó",
  "latitude": 48.3333,
  "longitude": 21.3333
}, {
  "title": "Abaújalpár",
  "latitude": 48.3167,
  "longitude": 21.2333
}, {
  "title": "Abaújkér",
  "latitude": 48.3,
  "longitude": 21.2
}, {
  "title": "Boldogkőújfalu",
  "latitude": 48.3167,
  "longitude": 21.25
}, {
  "title": "Boldogkőváralja",
  "latitude": 48.3333,
  "longitude": 21.2333
}, {
  "title": "Arka",
  "latitude": 48.35,
  "longitude": 21.25
}, {
  "title": "Korlát",
  "latitude": 48.3833,
  "longitude": 21.25
}, {
  "title": "Hernádcéce",
  "latitude": 48.35,
  "longitude": 21.2
}, {
  "title": "Vizsoly",
  "latitude": 48.3833,
  "longitude": 21.2167
}, {
  "title": "Vilmány",
  "latitude": 48.4167,
  "longitude": 21.2333
}, {
  "title": "Hejce",
  "latitude": 48.4333,
  "longitude": 21.2833
}, {
  "title": "Regéc",
  "latitude": 48.4,
  "longitude": 21.35
}, {
  "title": "Fony",
  "latitude": 48.4,
  "longitude": 21.3
}, {
  "title": "Mogyoróska",
  "latitude": 48.3833,
  "longitude": 21.3333
}, {
  "title": "Göncruszka",
  "latitude": 48.45,
  "longitude": 21.25
}, {
  "title": "Gönc",
  "latitude": 48.4667,
  "longitude": 21.2833
}, {
  "title": "Telkibánya",
  "latitude": 48.4833,
  "longitude": 21.3667
}, {
  "title": "Zsujta",
  "latitude": 48.5,
  "longitude": 21.2833
}, {
  "title": "Abaújvár",
  "latitude": 48.5333,
  "longitude": 21.3167
}, {
  "title": "Pányok",
  "latitude": 48.5333,
  "longitude": 21.3667
}, {
  "title": "Kéked",
  "latitude": 48.55,
  "longitude": 21.35
}, {
  "title": "Szerencs",
  "latitude": 48.1667,
  "longitude": 21.2
}, {
  "title": "Bekecs",
  "latitude": 48.15,
  "longitude": 21.1833
}, {
  "title": "Legyesbénye",
  "latitude": 48.1667,
  "longitude": 21.15
}, {
  "title": "Monok",
  "latitude": 48.2167,
  "longitude": 21.15
}, {
  "title": "Golop",
  "latitude": 48.2333,
  "longitude": 21.2
}, {
  "title": "Tállya",
  "latitude": 48.2333,
  "longitude": 21.2333
}, {
  "title": "Rátka",
  "latitude": 48.2167,
  "longitude": 21.2333
}, {
  "title": "Mád",
  "latitude": 48.2,
  "longitude": 21.2833
}, {
  "title": "Tokaj",
  "latitude": 48.1167,
  "longitude": 21.4167
}, {
  "title": "Tarcal",
  "latitude": 48.1333,
  "longitude": 21.35
}, {
  "title": "Bodrogkeresztúr",
  "latitude": 48.1667,
  "longitude": 21.3667
}, {
  "title": "Bodrogkisfalud",
  "latitude": 48.1833,
  "longitude": 21.3667
}, {
  "title": "Szegi",
  "latitude": 48.2,
  "longitude": 21.3833
}, {
  "title": "Szegilong",
  "latitude": 48.2167,
  "longitude": 21.4
}, {
  "title": "Taktaszada",
  "latitude": 48.1167,
  "longitude": 21.1833
}, {
  "title": "Taktaharkány",
  "latitude": 48.0833,
  "longitude": 21.1333
}, {
  "title": "Taktakenéz",
  "latitude": 48.05,
  "longitude": 21.2167
}, {
  "title": "Prügy",
  "latitude": 48.0833,
  "longitude": 21.25
}, {
  "title": "Taktabáj",
  "latitude": 48.0667,
  "longitude": 21.3167
}, {
  "title": "Csobaj",
  "latitude": 48.05,
  "longitude": 21.35
}, {
  "title": "Tiszatardos",
  "latitude": 48.05,
  "longitude": 21.3833
}, {
  "title": "Tiszaladány",
  "latitude": 48.0667,
  "longitude": 21.4167
}, {
  "title": "Mezőzombor",
  "latitude": 48.15,
  "longitude": 21.2667
}, {
  "title": "Erdőbénye",
  "latitude": 48.2667,
  "longitude": 21.3667
}, {
  "title": "Olaszliszka",
  "latitude": 48.25,
  "longitude": 21.4333
}, {
  "title": "Tolcsva",
  "latitude": 48.2833,
  "longitude": 21.45
}, {
  "title": "Erdőhorváti",
  "latitude": 48.3167,
  "longitude": 21.4333
}, {
  "title": "Háromhuta",
  "latitude": 48.3833,
  "longitude": 21.4333
}, {
  "title": "Komlóska",
  "latitude": 48.3333,
  "longitude": 21.4667
}, {
  "title": "Vámosújfalu",
  "latitude": 48.2667,
  "longitude": 21.4667
}, {
  "title": "Sárazsadány",
  "latitude": 48.2667,
  "longitude": 21.5
}, {
  "title": "Bodrogolaszi",
  "latitude": 48.2833,
  "longitude": 21.5167
}, {
  "title": "Sárospatak",
  "latitude": 48.3167,
  "longitude": 21.5833
}, {
  "title": "Györgytarló",
  "latitude": 48.2,
  "longitude": 21.6667
}, {
  "title": "Kenézlő",
  "latitude": 48.2,
  "longitude": 21.5333
}, {
  "title": "Viss",
  "latitude": 48.2167,
  "longitude": 21.5167
}, {
  "title": "Zalkod",
  "latitude": 48.1833,
  "longitude": 21.4667
}, {
  "title": "Hercegkút",
  "latitude": 48.3333,
  "longitude": 21.5333
}, {
  "title": "Makkoshotyka",
  "latitude": 48.35,
  "longitude": 21.5167
}, {
  "title": "Vajdácska",
  "latitude": 48.3167,
  "longitude": 21.6667
}, {
  "title": "Karos",
  "latitude": 48.3333,
  "longitude": 21.75
}, {
  "title": "Karcsa",
  "latitude": 48.3167,
  "longitude": 21.8
}, {
  "title": "Pácin",
  "latitude": 48.3333,
  "longitude": 21.8333
}, {
  "title": "Kisrozvágy",
  "latitude": 48.35,
  "longitude": 21.95
}, {
  "title": "Nagyrozvágy",
  "latitude": 48.3333,
  "longitude": 21.9167
}, {
  "title": "Lácacséke",
  "latitude": 48.3667,
  "longitude": 22
}, {
  "title": "Tiszakarád",
  "latitude": 48.2,
  "longitude": 21.7167
}, {
  "title": "Tiszacsermely",
  "latitude": 48.2333,
  "longitude": 21.7833
}, {
  "title": "Cigánd",
  "latitude": 48.25,
  "longitude": 21.9
}, {
  "title": "Ricse",
  "latitude": 48.3333,
  "longitude": 21.9667
}, {
  "title": "Semjén",
  "latitude": 48.35,
  "longitude": 21.9667
}, {
  "title": "Révleányvár",
  "latitude": 48.3167,
  "longitude": 22.05
}, {
  "title": "Zemplénagárd",
  "latitude": 48.35,
  "longitude": 22.0833
}, {
  "title": "Dámóc",
  "latitude": 48.3667,
  "longitude": 22.0333
}, {
  "title": "Sátoraljaújhely",
  "latitude": 48.4,
  "longitude": 21.6667
}, {
  "title": "Felsőberecki",
  "latitude": 48.3667,
  "longitude": 21.7
}, {
  "title": "Alsóberecki",
  "latitude": 48.35,
  "longitude": 21.7
}, {
  "title": "Bodroghalom",
  "latitude": 48.3,
  "longitude": 21.7167
}, {
  "title": "Mikóháza",
  "latitude": 48.475,
  "longitude": 21.6167
}, {
  "title": "Felsőregmec",
  "latitude": 48.4833,
  "longitude": 21.6167
}, {
  "title": "Alsóregmec",
  "latitude": 48.4667,
  "longitude": 21.6167
}, {
  "title": "Vilyvitány",
  "latitude": 48.5,
  "longitude": 21.5667
}, {
  "title": "Vágáshuta",
  "latitude": 48.4167,
  "longitude": 21.55
}, {
  "title": "Kovácsvágás",
  "latitude": 48.45,
  "longitude": 21.5333
}, {
  "title": "Füzérradvány",
  "latitude": 48.4833,
  "longitude": 21.5333
}, {
  "title": "Kishuta",
  "latitude": 48.45,
  "longitude": 21.4833
}, {
  "title": "Filkeháza",
  "latitude": 48.5,
  "longitude": 21.5
}, {
  "title": "Nagyhuta",
  "latitude": 48.4333,
  "longitude": 21.5
}, {
  "title": "Füzérkajata",
  "latitude": 48.5167,
  "longitude": 21.5
}, {
  "title": "Pálháza",
  "latitude": 48.4667,
  "longitude": 21.5167
}, {
  "title": "Bózsva",
  "latitude": 48.4667,
  "longitude": 21.4667
}, {
  "title": "Pusztafalu",
  "latitude": 48.55,
  "longitude": 21.5
}, {
  "title": "Füzér",
  "latitude": 48.55,
  "longitude": 21.4667
}, {
  "title": "Füzérkomlós",
  "latitude": 48.5167,
  "longitude": 21.4667
}, {
  "title": "Nyíri",
  "latitude": 48.5,
  "longitude": 21.45
}, {
  "title": "Hollóháza",
  "latitude": 48.55,
  "longitude": 21.4167
}, {
  "title": "Debrecen",
  "latitude": 47.7675,
  "longitude": 21.24
}, {
  "title": "Balmazújváros",
  "latitude": 47.6167,
  "longitude": 21.35
}, {
  "title": "Debrecen",
  "latitude": 47.6167,
  "longitude": 21.35
}, {
  "title": "Nagyhegyes",
  "latitude": 47.5167,
  "longitude": 21.4167
}, {
  "title": "Újszentmargita",
  "latitude": 47.7333,
  "longitude": 21.1
}, {
  "title": "Tiszacsege",
  "latitude": 47.7,
  "longitude": 21
}, {
  "title": "Egyek",
  "latitude": 47.6333,
  "longitude": 20.9
}, {
  "title": "Hortobágy",
  "latitude": 47.5833,
  "longitude": 21.1667
}, {
  "title": "Tarnalelesz",
  "latitude": 47.7708,
  "longitude": 21.2167
}, {
  "title": "Görbeháza",
  "latitude": 47.8333,
  "longitude": 21.2333
}, {
  "title": "Hajdúnánás",
  "latitude": 47.85,
  "longitude": 21.4333
}, {
  "title": "Hajdúdorog",
  "latitude": 47.8167,
  "longitude": 21.5
}, {
  "title": "Polgár",
  "latitude": 47.8667,
  "longitude": 21.1167
}, {
  "title": "Folyás",
  "latitude": 47.8,
  "longitude": 21.1333
}, {
  "title": "Újtikos",
  "latitude": 47.9167,
  "longitude": 21.1833
}, {
  "title": "Tiszagyulaháza",
  "latitude": 47.95,
  "longitude": 21.15
}, {
  "title": "Berettyóújfalu",
  "latitude": 47.2167,
  "longitude": 21.55
}, {
  "title": "Biharkeresztes",
  "latitude": 47.1333,
  "longitude": 21.7167
}, {
  "title": "Bojt",
  "latitude": 47.2,
  "longitude": 21.7333
}, {
  "title": "Ártánd",
  "latitude": 47.1167,
  "longitude": 21.7667
}, {
  "title": "Berekböszörmény",
  "latitude": 47.0667,
  "longitude": 21.6833
}, {
  "title": "Told",
  "latitude": 47.1167,
  "longitude": 21.65
}, {
  "title": "Mezőpeterd",
  "latitude": 47.1667,
  "longitude": 21.6167
}, {
  "title": "Váncsod",
  "latitude": 47.2,
  "longitude": 21.65
}, {
  "title": "Szentpéterszeg",
  "latitude": 47.2333,
  "longitude": 21.6167
}, {
  "title": "Gáborján",
  "latitude": 47.2333,
  "longitude": 21.6667
}, {
  "title": "Hencida",
  "latitude": 47.25,
  "longitude": 21.7
}, {
  "title": "Esztár",
  "latitude": 47.2833,
  "longitude": 21.7833
}, {
  "title": "Pocsaj",
  "latitude": 47.2833,
  "longitude": 21.8167
}, {
  "title": "Kismarja",
  "latitude": 47.25,
  "longitude": 21.8333
}, {
  "title": "Nagykereki",
  "latitude": 47.1833,
  "longitude": 21.8
}, {
  "title": "Bedő",
  "latitude": 47.1667,
  "longitude": 21.75
}, {
  "title": "Derecske",
  "latitude": 47.35,
  "longitude": 21.5667
}, {
  "title": "Tépe",
  "latitude": 47.3167,
  "longitude": 21.5833
}, {
  "title": "Konyár",
  "latitude": 47.3167,
  "longitude": 21.6667
}, {
  "title": "Mezősas",
  "latitude": 47.1167,
  "longitude": 21.5667
}, {
  "title": "Körösszegapáti",
  "latitude": 47.0333,
  "longitude": 21.6333
}, {
  "title": "Körösszakál",
  "latitude": 47.0167,
  "longitude": 21.6
}, {
  "title": "Magyarhomorog",
  "latitude": 47.0167,
  "longitude": 21.55
}, {
  "title": "Komádi",
  "latitude": 47,
  "longitude": 21.5
}, {
  "title": "Furta",
  "latitude": 47.1333,
  "longitude": 21.4667
}, {
  "title": "Zsáka",
  "latitude": 47.1333,
  "longitude": 21.4333
}, {
  "title": "Vekerd",
  "latitude": 47.1,
  "longitude": 21.4
}, {
  "title": "Darvas",
  "latitude": 47.1,
  "longitude": 21.35
}, {
  "title": "Csökmő",
  "latitude": 47.0333,
  "longitude": 21.3
}, {
  "title": "Újiráz",
  "latitude": 46.9833,
  "longitude": 21.3667
}, {
  "title": "Püspökladány",
  "latitude": 47.3167,
  "longitude": 21.1167
}, {
  "title": "Báránd",
  "latitude": 47.3,
  "longitude": 21.2333
}, {
  "title": "Szerep",
  "latitude": 47.2333,
  "longitude": 21.15
}, {
  "title": "Bakonszeg",
  "latitude": 47.1833,
  "longitude": 21.45
}, {
  "title": "Sárrétudvari",
  "latitude": 47.2333,
  "longitude": 21.2
}, {
  "title": "Biharnagybajom",
  "latitude": 47.2167,
  "longitude": 21.2333
}, {
  "title": "Nagyrábé",
  "latitude": 47.2,
  "longitude": 21.3333
}, {
  "title": "Bihartorda",
  "latitude": 47.2167,
  "longitude": 21.3667
}, {
  "title": "Bihardancsháza",
  "latitude": 47.2333,
  "longitude": 21.3167
}, {
  "title": "Sáp",
  "latitude": 47.25,
  "longitude": 21.3667
}, {
  "title": "Földes",
  "latitude": 47.3,
  "longitude": 21.3667
}, {
  "title": "Nádudvar",
  "latitude": 47.4167,
  "longitude": 21.1667
}, {
  "title": "Kaba",
  "latitude": 47.35,
  "longitude": 21.2833
}, {
  "title": "Tetétlen",
  "latitude": 47.3167,
  "longitude": 21.3
}, {
  "title": "Hajdúszoboszló",
  "latitude": 47.4467,
  "longitude": 21.3924
}, {
  "title": "Hajdúszoboszló",
  "latitude": 47.45,
  "longitude": 21.4
}, {
  "title": "Ebes",
  "latitude": 47.4667,
  "longitude": 21.5
}, {
  "title": "Hajdúszovát",
  "latitude": 47.3833,
  "longitude": 21.4833
}, {
  "title": "Hajdúböszörmény",
  "latitude": 47.6667,
  "longitude": 21.5167
}, {
  "title": "Debrecen",
  "latitude": 47.6667,
  "longitude": 21.5167
}, {
  "title": "Bököny",
  "latitude": 47.7333,
  "longitude": 21.75
}, {
  "title": "Geszteréd",
  "latitude": 47.7667,
  "longitude": 21.7833
}, {
  "title": "Balkány",
  "latitude": 47.7667,
  "longitude": 21.8667
}, {
  "title": "Szakoly",
  "latitude": 47.7667,
  "longitude": 21.9167
}, {
  "title": "Biri",
  "latitude": 47.8167,
  "longitude": 21.85
}, {
  "title": "Bocskaikert",
  "latitude": 47.4333,
  "longitude": 21.9167
}, {
  "title": "Hajdúhadház",
  "latitude": 47.6833,
  "longitude": 21.6667
}, {
  "title": "Téglás",
  "latitude": 47.7167,
  "longitude": 21.6833
}, {
  "title": "Újfehértó",
  "latitude": 47.8,
  "longitude": 21.6833
}, {
  "title": "Érpatak",
  "latitude": 47.8,
  "longitude": 21.7667
}, {
  "title": "Hajdúsámson",
  "latitude": 47.6,
  "longitude": 21.7667
}, {
  "title": "Nyíradony",
  "latitude": 47.6833,
  "longitude": 21.9167
}, {
  "title": "Nyíracsád",
  "latitude": 47.6,
  "longitude": 21.9833
}, {
  "title": "Nyírmártonfalva",
  "latitude": 47.5833,
  "longitude": 21.9
}, {
  "title": "Nyírábrány",
  "latitude": 47.55,
  "longitude": 22.0333
}, {
  "title": "Fülöp",
  "latitude": 47.6,
  "longitude": 22.0667
}, {
  "title": "Penészlek",
  "latitude": 47.6333,
  "longitude": 22.15
}, {
  "title": "Mikepércs",
  "latitude": 47.45,
  "longitude": 21.6333
}, {
  "title": "Sáránd",
  "latitude": 47.4,
  "longitude": 21.6333
}, {
  "title": "Hajdúbagos",
  "latitude": 47.4,
  "longitude": 21.6667
}, {
  "title": "Hosszúpályi",
  "latitude": 47.4,
  "longitude": 21.75
}, {
  "title": "Monostorpályi",
  "latitude": 47.4,
  "longitude": 21.7833
}, {
  "title": "Létavértes",
  "latitude": 47.3833,
  "longitude": 21.9
}, {
  "title": "Kokad",
  "latitude": 47.4,
  "longitude": 21.95
}, {
  "title": "Álmosd",
  "latitude": 47.4167,
  "longitude": 21.9833
}, {
  "title": "Bagamér",
  "latitude": 47.45,
  "longitude": 22
}, {
  "title": "Vámospércs",
  "latitude": 47.5333,
  "longitude": 21.9
}, {
  "title": "Újléta",
  "latitude": 47.4667,
  "longitude": 21.8833
}, {
  "title": "Nyírbátor",
  "latitude": 47.8333,
  "longitude": 22.1333
}, {
  "title": "Nyírgyulaj",
  "latitude": 47.8833,
  "longitude": 22.1
}, {
  "title": "Nagykálló",
  "latitude": 47.8833,
  "longitude": 21.85
}, {
  "title": "Kállósemjén",
  "latitude": 47.8667,
  "longitude": 21.9333
}, {
  "title": "Kisléta",
  "latitude": 47.8333,
  "longitude": 22.0167
}, {
  "title": "Máriapócs",
  "latitude": 47.8833,
  "longitude": 22.0333
}, {
  "title": "Pócspetri",
  "latitude": 47.8833,
  "longitude": 22
}, {
  "title": "Nyírcsászári",
  "latitude": 47.8667,
  "longitude": 22.1833
}, {
  "title": "Nyírderzs",
  "latitude": 47.9,
  "longitude": 22.1667
}, {
  "title": "Nyírkáta",
  "latitude": 47.8667,
  "longitude": 22.2667
}, {
  "title": "Hodász",
  "latitude": 47.9167,
  "longitude": 22.2167
}, {
  "title": "Kántorjánosi",
  "latitude": 47.9333,
  "longitude": 22.15
}, {
  "title": "Őr",
  "latitude": 47.9833,
  "longitude": 22.2
}, {
  "title": "Jármi",
  "latitude": 47.9667,
  "longitude": 22.25
}, {
  "title": "Papos",
  "latitude": 47.9833,
  "longitude": 22.25
}, {
  "title": "Nyírvasvári",
  "latitude": 47.8167,
  "longitude": 22.1833
}, {
  "title": "Terem",
  "latitude": 47.8,
  "longitude": 22.3167
}, {
  "title": "Bátorliget",
  "latitude": 47.8083,
  "longitude": 22.25
}, {
  "title": "Vállaj",
  "latitude": 47.7667,
  "longitude": 22.3833
}, {
  "title": "Mérk",
  "latitude": 47.7833,
  "longitude": 22.3667
}, {
  "title": "Tiborszállás",
  "latitude": 47.8167,
  "longitude": 22.4167
}, {
  "title": "Fábiánháza",
  "latitude": 47.8333,
  "longitude": 22.3667
}, {
  "title": "Nagyecsed",
  "latitude": 47.8667,
  "longitude": 22.4
}, {
  "title": "Nyírcsaholy",
  "latitude": 47.9,
  "longitude": 22.3333
}, {
  "title": "Nyírbogát",
  "latitude": 47.8,
  "longitude": 22.0667
}, {
  "title": "Nyírgelse",
  "latitude": 47.75,
  "longitude": 21.9833
}, {
  "title": "Nyírmihálydi",
  "latitude": 47.7333,
  "longitude": 21.9833
}, {
  "title": "Nyírlugos",
  "latitude": 47.7,
  "longitude": 22.05
}, {
  "title": "Nyírbéltek",
  "latitude": 47.7,
  "longitude": 22.1333
}, {
  "title": "Ömböly",
  "latitude": 47.7,
  "longitude": 22.2167
}, {
  "title": "Encsencs",
  "latitude": 47.7333,
  "longitude": 22.1167
}, {
  "title": "Piricse",
  "latitude": 47.7667,
  "longitude": 22.15
}, {
  "title": "Nyírpilis",
  "latitude": 47.7833,
  "longitude": 22.1833
}, {
  "title": "Nyíregyháza",
  "latitude": 47.95,
  "longitude": 21.7167
}, {
  "title": "Kálmánháza",
  "latitude": 47.8833,
  "longitude": 21.5833
}, {
  "title": "Tiszavasvári",
  "latitude": 47.9667,
  "longitude": 21.35
}, {
  "title": "Szorgalmatos",
  "latitude": 47.9667,
  "longitude": 21.4875
}, {
  "title": "Nagycserkesz",
  "latitude": 47.9667,
  "longitude": 21.5333
}, {
  "title": "Tiszalök",
  "latitude": 48.0167,
  "longitude": 21.3833
}, {
  "title": "Tiszadada",
  "latitude": 48.0333,
  "longitude": 21.25
}, {
  "title": "Tiszadob",
  "latitude": 48.0167,
  "longitude": 21.1667
}, {
  "title": "Nyírtelek",
  "latitude": 48.0167,
  "longitude": 21.6333
}, {
  "title": "Tiszanagyfalu",
  "latitude": 48.1,
  "longitude": 21.4833
}, {
  "title": "Tiszaeszlár",
  "latitude": 48.05,
  "longitude": 21.4667
}, {
  "title": "Rakamaz",
  "latitude": 48.1333,
  "longitude": 21.4667
}, {
  "title": "Timár",
  "latitude": 48.1667,
  "longitude": 21.4667
}, {
  "title": "Szabolcs",
  "latitude": 48.1833,
  "longitude": 21.5
}, {
  "title": "Balsa",
  "latitude": 48.1833,
  "longitude": 21.55
}, {
  "title": "Gávavencsellő",
  "latitude": 48.1667,
  "longitude": 21.6
}, {
  "title": "Tiszabercel",
  "latitude": 48.15,
  "longitude": 21.65
}, {
  "title": "Paszab",
  "latitude": 48.15,
  "longitude": 21.6833
}, {
  "title": "Kótaj",
  "latitude": 48.05,
  "longitude": 21.7167
}, {
  "title": "Buj",
  "latitude": 48.1,
  "longitude": 21.65
}, {
  "title": "Ibrány",
  "latitude": 48.1333,
  "longitude": 21.7167
}, {
  "title": "Nagyhalász",
  "latitude": 48.1333,
  "longitude": 21.7667
}, {
  "title": "Tiszatelek",
  "latitude": 48.2,
  "longitude": 21.8
}, {
  "title": "Beszterec",
  "latitude": 48.15,
  "longitude": 21.85
}, {
  "title": "Újdombrád",
  "latitude": 48.2333,
  "longitude": 21.9333
}, {
  "title": "Dombrád",
  "latitude": 48.2333,
  "longitude": 21.9333
}, {
  "title": "Tiszakanyár",
  "latitude": 48.25,
  "longitude": 21.9667
}, {
  "title": "Kékcse",
  "latitude": 48.25,
  "longitude": 22
}, {
  "title": "Döge",
  "latitude": 48.2667,
  "longitude": 22.0833
}, {
  "title": "Szabolcsveresmart",
  "latitude": 48.3,
  "longitude": 22.0167
}, {
  "title": "Kemecse",
  "latitude": 48.0667,
  "longitude": 21.8
}, {
  "title": "Vasmegyer",
  "latitude": 48.1167,
  "longitude": 21.8167
}, {
  "title": "Tiszarád",
  "latitude": 48.1167,
  "longitude": 21.8
}, {
  "title": "Nyírbogdány",
  "latitude": 48.05,
  "longitude": 21.8833
}, {
  "title": "Kék",
  "latitude": 48.1167,
  "longitude": 21.8833
}, {
  "title": "Demecser",
  "latitude": 48.1167,
  "longitude": 21.9167
}, {
  "title": "Gégény",
  "latitude": 48.15,
  "longitude": 21.95
}, {
  "title": "Berkesz",
  "latitude": 48.1,
  "longitude": 21.9833
}, {
  "title": "Nyírtass",
  "latitude": 48.1167,
  "longitude": 22.0333
}, {
  "title": "Pátroha",
  "latitude": 48.1667,
  "longitude": 22
}, {
  "title": "Ajak",
  "latitude": 48.1833,
  "longitude": 22.0667
}, {
  "title": "Rétközberencs",
  "latitude": 48.2,
  "longitude": 22.0167
}, {
  "title": "Nyírpazony",
  "latitude": 47.9833,
  "longitude": 21.8
}, {
  "title": "Nyírtura",
  "latitude": 48.0167,
  "longitude": 21.8333
}, {
  "title": "Sényő",
  "latitude": 48,
  "longitude": 21.8833
}, {
  "title": "Székely",
  "latitude": 48.0667,
  "longitude": 21.95
}, {
  "title": "Nyíribrony",
  "latitude": 48.0167,
  "longitude": 21.9667
}, {
  "title": "Ramocsaháza",
  "latitude": 48.05,
  "longitude": 22
}, {
  "title": "Nyírkércs",
  "latitude": 48.0167,
  "longitude": 22.05
}, {
  "title": "Nyírjákó",
  "latitude": 48.0333,
  "longitude": 22.0833
}, {
  "title": "Petneháza",
  "latitude": 48.0667,
  "longitude": 22.0833
}, {
  "title": "Laskod",
  "latitude": 48.05,
  "longitude": 22.05
}, {
  "title": "Nyírkarász",
  "latitude": 48.1,
  "longitude": 22.1
}, {
  "title": "Gyulaháza",
  "latitude": 48.1333,
  "longitude": 22.1167
}, {
  "title": "Anarcs",
  "latitude": 48.1833,
  "longitude": 22.1167
}, {
  "title": "Szabolcsbáka",
  "latitude": 48.15,
  "longitude": 22.15
}, {
  "title": "Napkor",
  "latitude": 47.9333,
  "longitude": 21.8833
}, {
  "title": "Apagy",
  "latitude": 47.9667,
  "longitude": 21.9333
}, {
  "title": "Nyírtét",
  "latitude": 48.0167,
  "longitude": 21.9333
}, {
  "title": "Levelek",
  "latitude": 47.9667,
  "longitude": 22
}, {
  "title": "Magy",
  "latitude": 47.9333,
  "longitude": 21.9833
}, {
  "title": "Besenyőd",
  "latitude": 47.9667,
  "longitude": 22.0167
}, {
  "title": "Ófehértó",
  "latitude": 47.9333,
  "longitude": 22.05
}, {
  "title": "Baktalórántháza",
  "latitude": 48,
  "longitude": 22.0833
}, {
  "title": "Vaja",
  "latitude": 48,
  "longitude": 22.1667
}, {
  "title": "Rohod",
  "latitude": 48.0333,
  "longitude": 22.1333
}, {
  "title": "Nyírmada",
  "latitude": 48.0667,
  "longitude": 22.2
}, {
  "title": "Pusztadobos",
  "latitude": 48.0667,
  "longitude": 22.2333
}, {
  "title": "Ilk",
  "latitude": 48.1167,
  "longitude": 22.2333
}, {
  "title": "Gemzse",
  "latitude": 48.1333,
  "longitude": 22.2
}, {
  "title": "Kisvárda",
  "latitude": 48.2167,
  "longitude": 22.0833
}, {
  "title": "Jéke",
  "latitude": 48.2333,
  "longitude": 22.1667
}, {
  "title": "Fényeslitke",
  "latitude": 48.2667,
  "longitude": 22.1
}, {
  "title": "Komoró",
  "latitude": 48.3,
  "longitude": 22.1167
}, {
  "title": "Tuzsér",
  "latitude": 48.35,
  "longitude": 22.1333
}, {
  "title": "Tiszabezdéd",
  "latitude": 48.3667,
  "longitude": 22.15
}, {
  "title": "Győröcske",
  "latitude": 48.3833,
  "longitude": 22.15
}, {
  "title": "Záhony",
  "latitude": 48.4167,
  "longitude": 22.1833
}, {
  "title": "Zsurk",
  "latitude": 48.4167,
  "longitude": 22.2167
}, {
  "title": "Tiszaszentmárton",
  "latitude": 48.3833,
  "longitude": 22.2333
}, {
  "title": "Pap",
  "latitude": 48.2167,
  "longitude": 22.15
}, {
  "title": "Nyírlövő",
  "latitude": 48.2,
  "longitude": 22.1833
}, {
  "title": "Lövőpetri",
  "latitude": 48.1833,
  "longitude": 22.2
}, {
  "title": "Aranyosapáti",
  "latitude": 48.2,
  "longitude": 22.2667
}, {
  "title": "Újkenéz",
  "latitude": 48.25,
  "longitude": 22.2333
}, {
  "title": "Mezőladány",
  "latitude": 48.2833,
  "longitude": 22.2167
}, {
  "title": "Tornyospálca",
  "latitude": 48.2667,
  "longitude": 22.1833
}, {
  "title": "Benk",
  "latitude": 48.3,
  "longitude": 22.2333
}, {
  "title": "Mándok",
  "latitude": 48.3167,
  "longitude": 22.2
}, {
  "title": "Tiszamogyorós",
  "latitude": 48.3167,
  "longitude": 22.2333
}, {
  "title": "Eperjeske",
  "latitude": 48.35,
  "longitude": 22.2167
}, {
  "title": "Mátészalka",
  "latitude": 47.95,
  "longitude": 22.3333
}, {
  "title": "Szamoskér",
  "latitude": 48.0167,
  "longitude": 22.4167
}, {
  "title": "Nyírmeggyes",
  "latitude": 47.9167,
  "longitude": 22.2667
}, {
  "title": "Tunyogmatolcs",
  "latitude": 47.9667,
  "longitude": 22.4667
}, {
  "title": "Cégénydányád",
  "latitude": 47.9333,
  "longitude": 22.55
}, {
  "title": "Gyügye",
  "latitude": 47.9333,
  "longitude": 22.5667
}, {
  "title": "Szamosújlak",
  "latitude": 47.9167,
  "longitude": 22.6
}, {
  "title": "Hermánszeg",
  "latitude": 47.9,
  "longitude": 22.6333
}, {
  "title": "Szamossályi",
  "latitude": 47.9,
  "longitude": 22.6167
}, {
  "title": "Darnó",
  "latitude": 47.9667,
  "longitude": 22.6667
}, {
  "title": "Kisnamény",
  "latitude": 47.95,
  "longitude": 22.7
}, {
  "title": "Jánkmajtis",
  "latitude": 47.95,
  "longitude": 22.65
}, {
  "title": "Csegöld",
  "latitude": 47.8875,
  "longitude": 22.6875
}, {
  "title": "Csengersima",
  "latitude": 47.8667,
  "longitude": 22.7333
}, {
  "title": "Szamosbecs",
  "latitude": 47.8667,
  "longitude": 22.7
}, {
  "title": "Szamostatárfalva",
  "latitude": 47.8667,
  "longitude": 22.6667
}, {
  "title": "Kocsord",
  "latitude": 47.95,
  "longitude": 22.3833
}, {
  "title": "Győrtelek",
  "latitude": 47.9333,
  "longitude": 22.4333
}, {
  "title": "Géberjén",
  "latitude": 47.9333,
  "longitude": 22.4667
}, {
  "title": "Fülpösdaróc",
  "latitude": 47.9333,
  "longitude": 22.5
}, {
  "title": "Ököritófülpös",
  "latitude": 47.9167,
  "longitude": 22.5167
}, {
  "title": "Rápolt",
  "latitude": 47.9167,
  "longitude": 22.5667
}, {
  "title": "Porcsalma",
  "latitude": 47.8833,
  "longitude": 22.5667
}, {
  "title": "Tyukod",
  "latitude": 47.85,
  "longitude": 22.55
}, {
  "title": "Ura",
  "latitude": 47.8167,
  "longitude": 22.6167
}, {
  "title": "Csengerújfalu",
  "latitude": 47.8,
  "longitude": 22.6333
}, {
  "title": "Komlódtótfalu",
  "latitude": 47.85,
  "longitude": 22.7
}, {
  "title": "Csenger",
  "latitude": 47.8333,
  "longitude": 22.6833
}, {
  "title": "Pátyod",
  "latitude": 47.8667,
  "longitude": 22.6167
}, {
  "title": "Szamosangyalos",
  "latitude": 47.8667,
  "longitude": 22.6667
}, {
  "title": "Vásárosnamény",
  "latitude": 48.1333,
  "longitude": 22.3167
}, {
  "title": "Kisvarsány",
  "latitude": 48.15,
  "longitude": 22.3
}, {
  "title": "Nagyvarsány",
  "latitude": 48.1667,
  "longitude": 22.2833
}, {
  "title": "Gyüre",
  "latitude": 48.1833,
  "longitude": 22.2833
}, {
  "title": "Ópályi",
  "latitude": 48,
  "longitude": 22.3167
}, {
  "title": "Nyírparasznya",
  "latitude": 48.0333,
  "longitude": 22.2833
}, {
  "title": "Nagydobos",
  "latitude": 48.05,
  "longitude": 22.3167
}, {
  "title": "Szamosszeg",
  "latitude": 48.05,
  "longitude": 22.3667
}, {
  "title": "Olcsva",
  "latitude": 48.0833,
  "longitude": 22.3333
}, {
  "title": "Tiszaszalka",
  "latitude": 48.1833,
  "longitude": 22.3167
}, {
  "title": "Tiszavid",
  "latitude": 48.2,
  "longitude": 22.3
}, {
  "title": "Tiszaadony",
  "latitude": 48.2333,
  "longitude": 22.3
}, {
  "title": "Tiszakerecseny",
  "latitude": 48.2667,
  "longitude": 22.3
}, {
  "title": "Mátyus",
  "latitude": 48.2833,
  "longitude": 22.2833
}, {
  "title": "Lónya",
  "latitude": 48.3167,
  "longitude": 22.2833
}, {
  "title": "Jánd",
  "latitude": 48.1167,
  "longitude": 22.3833
}, {
  "title": "Gulács",
  "latitude": 48.0833,
  "longitude": 22.4667
}, {
  "title": "Hetefejércse",
  "latitude": 48.1167,
  "longitude": 22.4833
}, {
  "title": "Csaroda",
  "latitude": 48.1667,
  "longitude": 22.4667
}, {
  "title": "Tákos",
  "latitude": 48.15,
  "longitude": 22.4333
}, {
  "title": "Fehérgyarmat",
  "latitude": 47.9833,
  "longitude": 22.5167
}, {
  "title": "Nábrád",
  "latitude": 48,
  "longitude": 22.45
}, {
  "title": "Kérsemjén",
  "latitude": 48.0167,
  "longitude": 22.4167
}, {
  "title": "Panyola",
  "latitude": 48.05,
  "longitude": 22.4
}, {
  "title": "Olcsvaapáti",
  "latitude": 48.0833,
  "longitude": 22.35
}, {
  "title": "Tivadar",
  "latitude": 48.0667,
  "longitude": 22.5167
}, {
  "title": "Kisar",
  "latitude": 48.05,
  "longitude": 22.5167
}, {
  "title": "Nagyar",
  "latitude": 48.05,
  "longitude": 22.5667
}, {
  "title": "Tarpa",
  "latitude": 48.1,
  "longitude": 22.5333
}, {
  "title": "Márokpapi",
  "latitude": 48.15,
  "longitude": 22.5167
}, {
  "title": "Beregsurány",
  "latitude": 48.1667,
  "longitude": 22.55
}, {
  "title": "Beregdaróc",
  "latitude": 48.2,
  "longitude": 22.5333
}, {
  "title": "Gelénes",
  "latitude": 48.2,
  "longitude": 22.45
}, {
  "title": "Vámosatya",
  "latitude": 48.2,
  "longitude": 22.4167
}, {
  "title": "Barabás",
  "latitude": 48.2333,
  "longitude": 22.4333
}, {
  "title": "Penyige",
  "latitude": 47.9833,
  "longitude": 22.5667
}, {
  "title": "Mánd",
  "latitude": 48,
  "longitude": 22.6167
}, {
  "title": "Nemesborzova",
  "latitude": 47.9833,
  "longitude": 22.6333
}, {
  "title": "Kömörő",
  "latitude": 48.0167,
  "longitude": 22.5833
}, {
  "title": "Túristvándi",
  "latitude": 48.05,
  "longitude": 22.65
}, {
  "title": "Szatmárcseke",
  "latitude": 48.0833,
  "longitude": 22.6333
}, {
  "title": "Tiszakóród",
  "latitude": 48.1,
  "longitude": 22.7167
}, {
  "title": "Tiszacsécse",
  "latitude": 48.1,
  "longitude": 22.75
}, {
  "title": "Milota",
  "latitude": 48.1,
  "longitude": 22.7833
}, {
  "title": "Tiszabecs",
  "latitude": 48.1,
  "longitude": 22.8167
}, {
  "title": "Uszka",
  "latitude": 48.0667,
  "longitude": 22.8667
}, {
  "title": "Magosliget",
  "latitude": 48.05,
  "longitude": 22.8667
}, {
  "title": "Sonkád",
  "latitude": 48.05,
  "longitude": 22.75
}, {
  "title": "Botpalád",
  "latitude": 48.0333,
  "longitude": 22.8
}, {
  "title": "Kispalád",
  "latitude": 48.0167,
  "longitude": 22.8333
}, {
  "title": "Zsarolyán",
  "latitude": 47.95,
  "longitude": 22.6
}, {
  "title": "Nagyszekeres",
  "latitude": 47.9667,
  "longitude": 22.6167
}, {
  "title": "Kisszekeres",
  "latitude": 47.9667,
  "longitude": 22.6333
}, {
  "title": "Fülesd",
  "latitude": 48.0167,
  "longitude": 22.6833
}, {
  "title": "Kölcse",
  "latitude": 48.05,
  "longitude": 22.7167
}, {
  "title": "Vámosoroszi",
  "latitude": 47.9833,
  "longitude": 22.6833
}, {
  "title": "Csaholc",
  "latitude": 47.9833,
  "longitude": 22.7333
}, {
  "title": "Túrricse",
  "latitude": 47.9667,
  "longitude": 22.7667
}, {
  "title": "Tisztaberek",
  "latitude": 47.95,
  "longitude": 22.8
}, {
  "title": "Rozsály",
  "latitude": 47.9167,
  "longitude": 22.8
}, {
  "title": "Gacsály",
  "latitude": 47.9333,
  "longitude": 22.7667
}, {
  "title": "Császló",
  "latitude": 47.9167,
  "longitude": 22.7333
}, {
  "title": "Zajta",
  "latitude": 47.9,
  "longitude": 22.8
}, {
  "title": "Méhtelek",
  "latitude": 47.9333,
  "longitude": 22.85
}, {
  "title": "Garbolc",
  "latitude": 47.95,
  "longitude": 22.8667
}, {
  "title": "Kishódos",
  "latitude": 47.9667,
  "longitude": 22.8333
}, {
  "title": "Nagyhódos",
  "latitude": 47.9667,
  "longitude": 22.85
}, {
  "title": "Szolnok",
  "latitude": 47.1833,
  "longitude": 20.2
}, {
  "title": "Zagyvarékas",
  "latitude": 47.2667,
  "longitude": 20.1333
}, {
  "title": "Újszász",
  "latitude": 47.3,
  "longitude": 20.0833
}, {
  "title": "Szászberek",
  "latitude": 47.3167,
  "longitude": 20.1
}, {
  "title": "Jászalsószentgyörgy",
  "latitude": 47.3667,
  "longitude": 20.1
}, {
  "title": "Jászladány",
  "latitude": 47.3667,
  "longitude": 20.1667
}, {
  "title": "Tiszasüly",
  "latitude": 47.3833,
  "longitude": 20.4
}, {
  "title": "Kőtelek",
  "latitude": 47.3333,
  "longitude": 20.45
}, {
  "title": "Hunyadfalva",
  "latitude": 47.3167,
  "longitude": 20.3833
}, {
  "title": "Csataszög",
  "latitude": 47.2833,
  "longitude": 20.4
}, {
  "title": "Nagykörű",
  "latitude": 47.2667,
  "longitude": 20.45
}, {
  "title": "Besenyszög",
  "latitude": 47.3,
  "longitude": 20.2667
}, {
  "title": "Szajol",
  "latitude": 47.1833,
  "longitude": 20.3
}, {
  "title": "Tiszatenyő",
  "latitude": 47.1333,
  "longitude": 20.3833
}, {
  "title": "Kengyel",
  "latitude": 47.0833,
  "longitude": 20.3333
}, {
  "title": "Rákócziújfalu",
  "latitude": 47.0667,
  "longitude": 20.2667
}, {
  "title": "Rákóczifalva",
  "latitude": 47.0833,
  "longitude": 20.2333
}, {
  "title": "Tószeg",
  "latitude": 47.1,
  "longitude": 20.15
}, {
  "title": "Tiszavárkony",
  "latitude": 47.0667,
  "longitude": 20.1833
}, {
  "title": "Vezseny",
  "latitude": 47.0333,
  "longitude": 20.2167
}, {
  "title": "Tiszajenő",
  "latitude": 47.0333,
  "longitude": 20.15
}, {
  "title": "Jászberény",
  "latitude": 47.5,
  "longitude": 19.9167
}, {
  "title": "Jászfelsőszentgyörgy",
  "latitude": 47.5,
  "longitude": 19.8
}, {
  "title": "Jászjákóhalma",
  "latitude": 47.5167,
  "longitude": 20
}, {
  "title": "Jászdózsa",
  "latitude": 47.5667,
  "longitude": 20.0167
}, {
  "title": "Jászárokszállás",
  "latitude": 47.6333,
  "longitude": 19.9833
}, {
  "title": "Jászágó",
  "latitude": 47.6,
  "longitude": 19.8667
}, {
  "title": "Pusztamonostor",
  "latitude": 47.55,
  "longitude": 19.8
}, {
  "title": "Jászfényszaru",
  "latitude": 47.5667,
  "longitude": 19.7167
}, {
  "title": "Jászapáti",
  "latitude": 47.5167,
  "longitude": 20.15
}, {
  "title": "Jászivány",
  "latitude": 47.5333,
  "longitude": 20.25
}, {
  "title": "Jászszentandrás",
  "latitude": 47.5833,
  "longitude": 20.1833
}, {
  "title": "Jászkisér",
  "latitude": 47.45,
  "longitude": 20.2167
}, {
  "title": "Jásztelek",
  "latitude": 47.4833,
  "longitude": 20
}, {
  "title": "Alattyán",
  "latitude": 47.4333,
  "longitude": 20.05
}, {
  "title": "Jánoshida",
  "latitude": 47.3833,
  "longitude": 20.0667
}, {
  "title": "Jászboldogháza",
  "latitude": 47.3667,
  "longitude": 20
}, {
  "title": "Törökszentmiklós",
  "latitude": 47.1833,
  "longitude": 20.4167
}, {
  "title": "Tiszapüspöki",
  "latitude": 47.2167,
  "longitude": 20.3167
}, {
  "title": "Örményes",
  "latitude": 47.2,
  "longitude": 20.5833
}, {
  "title": "Fegyvernek",
  "latitude": 47.2667,
  "longitude": 20.5333
}, {
  "title": "Tiszabő",
  "latitude": 47.3,
  "longitude": 20.4833
}, {
  "title": "Tiszagyenda",
  "latitude": 47.3833,
  "longitude": 20.5167
}, {
  "title": "Tiszaroff",
  "latitude": 47.4,
  "longitude": 20.45
}, {
  "title": "Tiszabura",
  "latitude": 47.45,
  "longitude": 20.4667
}, {
  "title": "Abádszalók",
  "latitude": 47.4667,
  "longitude": 20.6
}, {
  "title": "Tiszaderzs",
  "latitude": 47.5167,
  "longitude": 20.65
}, {
  "title": "Tiszaszőlős",
  "latitude": 47.6167,
  "longitude": 20.7667
}, {
  "title": "Karcag",
  "latitude": 47.3167,
  "longitude": 20.9333
}, {
  "title": "Berekfürdő",
  "latitude": 47.3833,
  "longitude": 20.85
}, {
  "title": "Kisújszállás",
  "latitude": 47.2167,
  "longitude": 20.7667
}, {
  "title": "Kunmadaras",
  "latitude": 47.4333,
  "longitude": 20.8
}, {
  "title": "Tiszaszentimre",
  "latitude": 47.4833,
  "longitude": 20.7333
}, {
  "title": "Tomajmonostora",
  "latitude": 47.4333,
  "longitude": 20.7167
}, {
  "title": "Kenderes",
  "latitude": 47.25,
  "longitude": 20.6833
}, {
  "title": "Kunhegyes",
  "latitude": 47.3667,
  "longitude": 20.6333
}, {
  "title": "Tiszafüred",
  "latitude": 47.6167,
  "longitude": 20.7667
}, {
  "title": "Tiszaigar",
  "latitude": 47.5333,
  "longitude": 20.8
}, {
  "title": "Tiszaörs",
  "latitude": 47.5167,
  "longitude": 20.8333
}, {
  "title": "Nagyiván",
  "latitude": 47.4833,
  "longitude": 20.9333
}, {
  "title": "Mezőtúr",
  "latitude": 47,
  "longitude": 20.6333
}, {
  "title": "Kétpó",
  "latitude": 47.0833,
  "longitude": 20.4667
}, {
  "title": "Kuncsorba",
  "latitude": 47.1333,
  "longitude": 20.5667
}, {
  "title": "Túrkeve",
  "latitude": 47.1,
  "longitude": 20.75
}, {
  "title": "Tiszaföldvár",
  "latitude": 46.9833,
  "longitude": 20.25
}, {
  "title": "Martfű",
  "latitude": 47.0167,
  "longitude": 20.2833
}, {
  "title": "Kunszentmárton",
  "latitude": 46.8333,
  "longitude": 20.2833
}, {
  "title": "Öcsöd",
  "latitude": 46.9,
  "longitude": 20.4
}, {
  "title": "Mesterszállás",
  "latitude": 46.95,
  "longitude": 20.4333
}, {
  "title": "Mezőhék",
  "latitude": 47,
  "longitude": 20.4
}, {
  "title": "Cibakháza",
  "latitude": 46.9667,
  "longitude": 20.2
}, {
  "title": "Nagyrév",
  "latitude": 46.95,
  "longitude": 20.15
}, {
  "title": "Tiszainoka",
  "latitude": 46.9,
  "longitude": 20.15
}, {
  "title": "Cserkeszőlő",
  "latitude": 46.8667,
  "longitude": 20.1833
}, {
  "title": "Tiszakürt",
  "latitude": 46.8833,
  "longitude": 20.1167
}, {
  "title": "Tiszaug",
  "latitude": 46.8333,
  "longitude": 20.1542
}, {
  "title": "Tiszasas",
  "latitude": 46.8167,
  "longitude": 20.0833
}, {
  "title": "Csépa",
  "latitude": 46.8,
  "longitude": 20.1333
}, {
  "title": "Szelevény",
  "latitude": 46.8333,
  "longitude": 20.2833
}, {
  "title": "Gyomaendrőd",
  "latitude": 46.9333,
  "longitude": 20.8333
}, {
  "title": "Dévaványa",
  "latitude": 47.0333,
  "longitude": 20.9667
}, {
  "title": "Ecsegfalva",
  "latitude": 47.15,
  "longitude": 20.9167
}, {
  "title": "Körösladány",
  "latitude": 46.9667,
  "longitude": 21.0833
}, {
  "title": "Szeghalom",
  "latitude": 47.0333,
  "longitude": 21.1667
}, {
  "title": "Füzesgyarmat",
  "latitude": 47.1,
  "longitude": 21.2167
}, {
  "title": "Kertészsziget",
  "latitude": 47.15,
  "longitude": 21.0667
}, {
  "title": "Bucsa",
  "latitude": 47.2,
  "longitude": 21
}, {
  "title": "Vésztő",
  "latitude": 46.9167,
  "longitude": 21.2667
}, {
  "title": "Okány",
  "latitude": 46.9,
  "longitude": 21.35
}, {
  "title": "Körösújfalu",
  "latitude": 46.9667,
  "longitude": 21.4
}, {
  "title": "Zsadány",
  "latitude": 46.9167,
  "longitude": 21.5
}, {
  "title": "Biharugra",
  "latitude": 46.9667,
  "longitude": 21.6
}, {
  "title": "Körösnagyharsány",
  "latitude": 47,
  "longitude": 21.65
}, {
  "title": "Szarvas",
  "latitude": 46.8667,
  "longitude": 20.55
}, {
  "title": "Csabacsűd",
  "latitude": 46.8333,
  "longitude": 20.65
}, {
  "title": "Kardos",
  "latitude": 46.8167,
  "longitude": 20.7708
}, {
  "title": "Kondoros",
  "latitude": 46.7667,
  "longitude": 20.8
}, {
  "title": "Hunya",
  "latitude": 46.8167,
  "longitude": 20.85
}, {
  "title": "Örménykút",
  "latitude": 46.85,
  "longitude": 20.7833
}, {
  "title": "Békésszentandrás",
  "latitude": 46.8667,
  "longitude": 20.4833
}, {
  "title": "Békéscsaba",
  "latitude": 46.6833,
  "longitude": 21.1
}, {
  "title": "Csabaszabadi",
  "latitude": 46.6833,
  "longitude": 21.0833
}, {
  "title": "Csárdaszállás",
  "latitude": 46.8667,
  "longitude": 20.9333
}, {
  "title": "Köröstarcsa",
  "latitude": 46.8833,
  "longitude": 21.0333
}, {
  "title": "Doboz",
  "latitude": 46.7333,
  "longitude": 21.25
}, {
  "title": "Békés",
  "latitude": 46.7667,
  "longitude": 21.1333
}, {
  "title": "Tarhos",
  "latitude": 46.8167,
  "longitude": 21.2167
}, {
  "title": "Bélmegyer",
  "latitude": 46.8667,
  "longitude": 21.1833
}, {
  "title": "Mezőberény",
  "latitude": 46.8167,
  "longitude": 21.0333
}, {
  "title": "Újkígyós",
  "latitude": 46.5833,
  "longitude": 21.0333
}, {
  "title": "Csanádapáca",
  "latitude": 46.55,
  "longitude": 20.8833
}, {
  "title": "Medgyesbodzás",
  "latitude": 46.5167,
  "longitude": 20.9667
}, {
  "title": "Pusztaottlaka",
  "latitude": 46.55,
  "longitude": 20.9833
}, {
  "title": "Medgyesegyháza",
  "latitude": 46.5,
  "longitude": 21.0333
}, {
  "title": "Magyarbánhegyes",
  "latitude": 46.45,
  "longitude": 20.9667
}, {
  "title": "Nagybánhegyes",
  "latitude": 46.4667,
  "longitude": 20.9
}, {
  "title": "Murony",
  "latitude": 46.7667,
  "longitude": 21.05
}, {
  "title": "Kamut",
  "latitude": 46.7667,
  "longitude": 20.9833
}, {
  "title": "Kétsoprony",
  "latitude": 46.7167,
  "longitude": 20.8667
}, {
  "title": "Telekgerendás",
  "latitude": 46.65,
  "longitude": 20.9667
}, {
  "title": "Gyula",
  "latitude": 46.6474,
  "longitude": 21.2773
}, {
  "title": "Gyula",
  "latitude": 46.65,
  "longitude": 21.2833
}, {
  "title": "Szabadkígyós",
  "latitude": 46.6167,
  "longitude": 21.1
}, {
  "title": "Sarkad",
  "latitude": 46.75,
  "longitude": 21.3833
},